record_id,query_id,query_text,method,orig_rank,display_order,pano_id,image_path,image_file_name,source_score,source_prompt,best_yaw,lng,lat,num_views,num_views_above_thresh
Q01_CLIP_0002_0Y6D,Q01,"a safe, quiet place with lots of greenery where people can read outdoors",CLIP,2,1,-8hTRznWQS2FET3PIiz99A,D:\AAG\Milano_SVI\lang2img\0_Dataprocessing\views_4\-8hTRznWQS2FET3PIiz99A_090.jpg,-8hTRznWQS2FET3PIiz99A_090.jpg,0.24926758,street benches,90,9.18271,45.45435139,4,2
Q01_CLIP_0007_8MDD,Q01,"a safe, quiet place with lots of greenery where people can read outdoors",CLIP,7,2,QzMd74_7Yeff6YgDNyi2YA,D:\AAG\Milano_SVI\lang2img\0_Dataprocessing\views_4\QzMd74_7Yeff6YgDNyi2YA_270.jpg,QzMd74_7Yeff6YgDNyi2YA_270.jpg,0.24169922,public bench,270,9.220532204,45.44188488,4,1
Q01_CLIP_0065_CHJ7,Q01,"a safe, quiet place with lots of greenery where people can read outdoors",CLIP,65,3,c7ylgg0sraR-29HH0JabQA,D:\AAG\Milano_SVI\lang2img\0_Dataprocessing\views_4\c7ylgg0sraR-29HH0JabQA_090.jpg,c7ylgg0sraR-29HH0JabQA_090.jpg,0.22399902,a bench,90,9.180427882,45.51095914,4,1
Q01_CLIP_0266_6CCV,Q01,"a safe, quiet place with lots of greenery where people can read outdoors",CLIP,266,4,5ugBKnG36dYs8894vnKobA,D:\AAG\Milano_SVI\lang2img\0_Dataprocessing\views_4\5ugBKnG36dYs8894vnKobA_270.jpg,5ugBKnG36dYs8894vnKobA_270.jpg,0.21496582,bench near the curb,270,9.200085,45.5052569,4,1
Q01_CLIP_0235_T63J,Q01,"a safe, quiet place with lots of greenery where people can read outdoors",CLIP,235,5,X1ykvjJ8o11bS77u8HUe6w,D:\AAG\Milano_SVI\lang2img\0_Dataprocessing\views_4\X1ykvjJ8o11bS77u8HUe6w_090.jpg,X1ykvjJ8o11bS77u8HUe6w_090.jpg,0.21569824,bench near the curb,90,9.119256774,45.48132444,4,1
Q01_CLIP_0220_I6FQ,Q01,"a safe, quiet place with lots of greenery where people can read outdoors",CLIP,220,6,tVEDDRHBi5CNp64WpIBXBA,D:\AAG\Milano_SVI\lang2img\0_Dataprocessing\views_4\tVEDDRHBi5CNp64WpIBXBA_090.jpg,tVEDDRHBi5CNp64WpIBXBA_090.jpg,0.21606445,public bench,90,9.1433068,45.4938149,4,1
Q01_CLIP_0099_KTAK,Q01,"a safe, quiet place with lots of greenery where people can read outdoors",CLIP,99,7,HT7OQPO7KcKBNPxWB82y4g,D:\AAG\Milano_SVI\lang2img\0_Dataprocessing\views_4\HT7OQPO7KcKBNPxWB82y4g_270.jpg,HT7OQPO7KcKBNPxWB82y4g_270.jpg,0.22180176,bench near the curb,270,9.104629477,45.47006472,4,1
Q01_CLIP_0029_SG65,Q01,"a safe, quiet place with lots of greenery where people can read outdoors",CLIP,29,8,blXDCgzLGyNiV_ma4ELu_g,D:\AAG\Milano_SVI\lang2img\0_Dataprocessing\views_4\blXDCgzLGyNiV_ma4ELu_g_270.jpg,blXDCgzLGyNiV_ma4ELu_g_270.jpg,0.22875977,street benches,270,9.216281711,45.44393101,4,1
Q01_CLIP_0095_XLL4,Q01,"a safe, quiet place with lots of greenery where people can read outdoors",CLIP,95,9,xd5-D3J6UbYKj1MJjsLOeg,D:\AAG\Milano_SVI\lang2img\0_Dataprocessing\views_4\xd5-D3J6UbYKj1MJjsLOeg_090.jpg,xd5-D3J6UbYKj1MJjsLOeg_090.jpg,0.2220459,benches along the street,90,9.2236699,45.4795251,4,1
Q01_CLIP_0145_TRP0,Q01,"a safe, quiet place with lots of greenery where people can read outdoors",CLIP,145,10,bsVucKle99ah6lmhpoqZ7g,D:\AAG\Milano_SVI\lang2img\0_Dataprocessing\views_4\bsVucKle99ah6lmhpoqZ7g_090.jpg,bsVucKle99ah6lmhpoqZ7g_090.jpg,0.21862793,benches on the sidewalk,90,9.106476834,45.4993917,4,1
Q01_CLIP_0237_ME8F,Q01,"a safe, quiet place with lots of greenery where people can read outdoors",CLIP,237,11,CWQHAvNvB2EHrY1OHC6CPQ,D:\AAG\Milano_SVI\lang2img\0_Dataprocessing\views_4\CWQHAvNvB2EHrY1OHC6CPQ_090.jpg,CWQHAvNvB2EHrY1OHC6CPQ_090.jpg,0.21557617,public bench,90,9.179965338,45.45301807,4,1
Q01_CLIP_0069_X7EE,Q01,"a safe, quiet place with lots of greenery where people can read outdoors",CLIP,69,12,E3UaqKzuQUih6sMkALzSgA,D:\AAG\Milano_SVI\lang2img\0_Dataprocessing\views_4\E3UaqKzuQUih6sMkALzSgA_270.jpg,E3UaqKzuQUih6sMkALzSgA_270.jpg,0.22375488,benches along the street,270,9.1264573,45.5015786,4,1
Q01_CLIP_0093_A7TZ,Q01,"a safe, quiet place with lots of greenery where people can read outdoors",CLIP,93,13,46vB-XayK9AmJWDl_ZsUeQ,D:\AAG\Milano_SVI\lang2img\0_Dataprocessing\views_4\46vB-XayK9AmJWDl_ZsUeQ_090.jpg,46vB-XayK9AmJWDl_ZsUeQ_090.jpg,0.22229004,bench near the curb,90,9.0852806,45.463835,4,1
Q01_CLIP_0127_AXEQ,Q01,"a safe, quiet place with lots of greenery where people can read outdoors",CLIP,127,14,2puLTmKiVqHmLUu3e524hg,D:\AAG\Milano_SVI\lang2img\0_Dataprocessing\views_4\2puLTmKiVqHmLUu3e524hg_090.jpg,2puLTmKiVqHmLUu3e524hg_090.jpg,0.21984863,bench near the curb,90,9.263052608,45.51543603,4,1
Q01_CLIP_0152_YXR2,Q01,"a safe, quiet place with lots of greenery where people can read outdoors",CLIP,152,15,ecfwxQk6mhU313hHqojrog,D:\AAG\Milano_SVI\lang2img\0_Dataprocessing\views_4\ecfwxQk6mhU313hHqojrog_090.jpg,ecfwxQk6mhU313hHqojrog_090.jpg,0.21813965,bench near the curb,90,9.1653606,45.5283222,4,1
Q01_CLIP_0129_1N13,Q01,"a safe, quiet place with lots of greenery where people can read outdoors",CLIP,129,16,2bplupzItRwcd4jrhvrrPA,D:\AAG\Milano_SVI\lang2img\0_Dataprocessing\views_4\2bplupzItRwcd4jrhvrrPA_180.jpg,2bplupzItRwcd4jrhvrrPA_180.jpg,0.21972656,bench near the curb,180,9.1564963,45.4875577,4,1
Q01_CLIP_0077_FEL6,Q01,"a safe, quiet place with lots of greenery where people can read outdoors",CLIP,77,17,gobn7WLq1Dy4z6n676s6Yg,D:\AAG\Milano_SVI\lang2img\0_Dataprocessing\views_4\gobn7WLq1Dy4z6n676s6Yg_270.jpg,gobn7WLq1Dy4z6n676s6Yg_270.jpg,0.22314453,benches on the sidewalk,270,9.230732221,45.47938942,4,1
Q01_CLIP_0158_R09S,Q01,"a safe, quiet place with lots of greenery where people can read outdoors",CLIP,158,18,yTteNcv1dX3woBysfsv82g,D:\AAG\Milano_SVI\lang2img\0_Dataprocessing\views_4\yTteNcv1dX3woBysfsv82g_090.jpg,yTteNcv1dX3woBysfsv82g_090.jpg,0.21789551,bench near the curb,90,9.184889201,45.50455594,4,1
Q01_CLIP_0241_YV37,Q01,"a safe, quiet place with lots of greenery where people can read outdoors",CLIP,241,19,sy79p8T7GAOjHldi2Ho-EA,D:\AAG\Milano_SVI\lang2img\0_Dataprocessing\views_4\sy79p8T7GAOjHldi2Ho-EA_180.jpg,sy79p8T7GAOjHldi2Ho-EA_180.jpg,0.21557617,bench near the curb,180,9.173442193,45.47578668,4,1
Q01_CLIP_0233_0DK0,Q01,"a safe, quiet place with lots of greenery where people can read outdoors",CLIP,233,20,VRGIzOsYqjeb0G1DXgdHng,D:\AAG\Milano_SVI\lang2img\0_Dataprocessing\views_4\VRGIzOsYqjeb0G1DXgdHng_090.jpg,VRGIzOsYqjeb0G1DXgdHng_090.jpg,0.21569824,bench near the curb,90,9.2509441,45.4872489,4,1
Q01_CLIP_0203_TTQL,Q01,"a safe, quiet place with lots of greenery where people can read outdoors",CLIP,203,21,bo9TamVi0OCTf0Xrt0IVxw,D:\AAG\Milano_SVI\lang2img\0_Dataprocessing\views_4\bo9TamVi0OCTf0Xrt0IVxw_090.jpg,bo9TamVi0OCTf0Xrt0IVxw_090.jpg,0.2163086,bench near the curb,90,9.176706243,45.47812157,4,1
Q01_CLIP_0059_VYIE,Q01,"a safe, quiet place with lots of greenery where people can read outdoors",CLIP,59,22,qf1asmkwqbhM7s9PF2owyg,D:\AAG\Milano_SVI\lang2img\0_Dataprocessing\views_4\qf1asmkwqbhM7s9PF2owyg_090.jpg,qf1asmkwqbhM7s9PF2owyg_090.jpg,0.22436523,street furniture benches,90,9.2557467,45.5115871,4,1
Q01_CLIP_0211_MYX4,Q01,"a safe, quiet place with lots of greenery where people can read outdoors",CLIP,211,23,lLc7Aexj1pAnBUjnuU5jMw,D:\AAG\Milano_SVI\lang2img\0_Dataprocessing\views_4\lLc7Aexj1pAnBUjnuU5jMw_090.jpg,lLc7Aexj1pAnBUjnuU5jMw_090.jpg,0.21618652,street furniture benches,90,9.217259947,45.43719595,4,1
Q01_CLIP_0270_X1ZH,Q01,"a safe, quiet place with lots of greenery where people can read outdoors",CLIP,270,24,Z_wT2ry7Qouus-tbofB8TQ,D:\AAG\Milano_SVI\lang2img\0_Dataprocessing\views_4\Z_wT2ry7Qouus-tbofB8TQ_270.jpg,Z_wT2ry7Qouus-tbofB8TQ_270.jpg,0.21484375,street furniture benches,270,9.2439361,45.4614124,4,1
Q01_CLIP_0040_MVIH,Q01,"a safe, quiet place with lots of greenery where people can read outdoors",CLIP,40,25,6zLdZ-L1WoMxOjXuKCEjGg,D:\AAG\Milano_SVI\lang2img\0_Dataprocessing\views_4\6zLdZ-L1WoMxOjXuKCEjGg_270.jpg,6zLdZ-L1WoMxOjXuKCEjGg_270.jpg,0.22668457,a bench on the sidewalk,270,9.214158591,45.52209971,4,1
Q01_CLIP_0019_5LXO,Q01,"a safe, quiet place with lots of greenery where people can read outdoors",CLIP,19,26,Z-f5sHd-1K1JPAwlAKwX7Q,D:\AAG\Milano_SVI\lang2img\0_Dataprocessing\views_4\Z-f5sHd-1K1JPAwlAKwX7Q_270.jpg,Z-f5sHd-1K1JPAwlAKwX7Q_270.jpg,0.23352051,bench near the curb,270,9.129948147,45.49543508,4,1
Q01_CLIP_0183_B1QX,Q01,"a safe, quiet place with lots of greenery where people can read outdoors",CLIP,183,27,AZv48cch3H-5m6cJlgCjOw,D:\AAG\Milano_SVI\lang2img\0_Dataprocessing\views_4\AZv48cch3H-5m6cJlgCjOw_270.jpg,AZv48cch3H-5m6cJlgCjOw_270.jpg,0.21679688,street furniture benches,270,9.1984214,45.4633151,4,1
Q01_CLIP_0209_SQ0O,Q01,"a safe, quiet place with lots of greenery where people can read outdoors",CLIP,209,28,6gwR49f0WpFMRm9-5X5JnQ,D:\AAG\Milano_SVI\lang2img\0_Dataprocessing\views_4\6gwR49f0WpFMRm9-5X5JnQ_090.jpg,6gwR49f0WpFMRm9-5X5JnQ_090.jpg,0.21618652,bench near the curb,90,9.177283134,45.42278709,4,1
Q01_CLIP_0267_CJWT,Q01,"a safe, quiet place with lots of greenery where people can read outdoors",CLIP,267,29,OAwUhpRv5oWUlTnbyFj0EQ,D:\AAG\Milano_SVI\lang2img\0_Dataprocessing\views_4\OAwUhpRv5oWUlTnbyFj0EQ_090.jpg,OAwUhpRv5oWUlTnbyFj0EQ_090.jpg,0.21484375,street benches,90,9.192405805,45.48676339,4,1
Q01_CLIP_0222_6YFP,Q01,"a safe, quiet place with lots of greenery where people can read outdoors",CLIP,222,30,MrM2w0fKTxGgWwFjthVYig,D:\AAG\Milano_SVI\lang2img\0_Dataprocessing\views_4\MrM2w0fKTxGgWwFjthVYig_270.jpg,MrM2w0fKTxGgWwFjthVYig_270.jpg,0.21594238,public bench,270,9.2053034,45.4504563,4,1
Q01_CLIP_0020_6QJI,Q01,"a safe, quiet place with lots of greenery where people can read outdoors",CLIP,20,31,C83MK_HP00LQ8e4O8xse1Q,D:\AAG\Milano_SVI\lang2img\0_Dataprocessing\views_4\C83MK_HP00LQ8e4O8xse1Q_270.jpg,C83MK_HP00LQ8e4O8xse1Q_270.jpg,0.2331543,bench near the curb,270,9.122564978,45.50340238,4,1
Q01_CLIP_0116_CKJL,Q01,"a safe, quiet place with lots of greenery where people can read outdoors",CLIP,116,32,0hZwTEEBNeVfs8JOEU9Psg,D:\AAG\Milano_SVI\lang2img\0_Dataprocessing\views_4\0hZwTEEBNeVfs8JOEU9Psg_270.jpg,0hZwTEEBNeVfs8JOEU9Psg_270.jpg,0.22045898,bench near the curb,270,9.244514711,45.50995858,4,1
Q01_CLIP_0088_XO9T,Q01,"a safe, quiet place with lots of greenery where people can read outdoors",CLIP,88,33,jSF0cNeBk5XfYf-lCdd7Aw,D:\AAG\Milano_SVI\lang2img\0_Dataprocessing\views_4\jSF0cNeBk5XfYf-lCdd7Aw_090.jpg,jSF0cNeBk5XfYf-lCdd7Aw_090.jpg,0.22265625,street benches,90,9.1876991,45.4715629,4,1
Q01_CLIP_0252_MOGE,Q01,"a safe, quiet place with lots of greenery where people can read outdoors",CLIP,252,34,GHQ_yRFEfYY0ZaQHBgD0bA,D:\AAG\Milano_SVI\lang2img\0_Dataprocessing\views_4\GHQ_yRFEfYY0ZaQHBgD0bA_270.jpg,GHQ_yRFEfYY0ZaQHBgD0bA_270.jpg,0.21533203,bench near the curb,270,9.25033809,45.46191174,4,1
Q01_CLIP_0048_GQPK,Q01,"a safe, quiet place with lots of greenery where people can read outdoors",CLIP,48,35,BP8x7m_NmmqS1PUMGN1ZTw,D:\AAG\Milano_SVI\lang2img\0_Dataprocessing\views_4\BP8x7m_NmmqS1PUMGN1ZTw_270.jpg,BP8x7m_NmmqS1PUMGN1ZTw_270.jpg,0.22509766,benches on the sidewalk,270,9.224152622,45.4613106,4,1
Q01_CLIP_0015_G0FN,Q01,"a safe, quiet place with lots of greenery where people can read outdoors",CLIP,15,36,wOJIst6wLGUS5cGeyEJMLw,D:\AAG\Milano_SVI\lang2img\0_Dataprocessing\views_4\wOJIst6wLGUS5cGeyEJMLw_090.jpg,wOJIst6wLGUS5cGeyEJMLw_090.jpg,0.23632812,bench near the curb,90,9.1206041,45.5121295,4,1
Q01_CLIP_0106_OWGZ,Q01,"a safe, quiet place with lots of greenery where people can read outdoors",CLIP,106,37,s1NT1i4rFUZuG5HUjcNB4w,D:\AAG\Milano_SVI\lang2img\0_Dataprocessing\views_4\s1NT1i4rFUZuG5HUjcNB4w_090.jpg,s1NT1i4rFUZuG5HUjcNB4w_090.jpg,0.22155762,street benches,90,9.2521359,45.4867502,4,1
Q01_CLIP_0185_RDML,Q01,"a safe, quiet place with lots of greenery where people can read outdoors",CLIP,185,38,XRpTW5diP3hXmHaR76IJiQ,D:\AAG\Milano_SVI\lang2img\0_Dataprocessing\views_4\XRpTW5diP3hXmHaR76IJiQ_090.jpg,XRpTW5diP3hXmHaR76IJiQ_090.jpg,0.21679688,bench near the curb,90,9.16734619,45.52619751,4,1
Q01_CLIP_0160_GATJ,Q01,"a safe, quiet place with lots of greenery where people can read outdoors",CLIP,160,39,P7xWbfS4G7ZPGnEqqwDvkw,D:\AAG\Milano_SVI\lang2img\0_Dataprocessing\views_4\P7xWbfS4G7ZPGnEqqwDvkw_270.jpg,P7xWbfS4G7ZPGnEqqwDvkw_270.jpg,0.21777344,street furniture benches,270,9.1642436,45.5275501,4,1
Q01_CLIP_0177_FL0U,Q01,"a safe, quiet place with lots of greenery where people can read outdoors",CLIP,177,40,7EIxOxFoXYebF7asa1ATKQ,D:\AAG\Milano_SVI\lang2img\0_Dataprocessing\views_4\7EIxOxFoXYebF7asa1ATKQ_270.jpg,7EIxOxFoXYebF7asa1ATKQ_270.jpg,0.21704102,bench near the curb,270,9.209369721,45.45633517,4,1
Q01_CLIP_0026_AZYT,Q01,"a safe, quiet place with lots of greenery where people can read outdoors",CLIP,26,41,ol2vJpnw2r7Ib4fZ-GqRIQ,D:\AAG\Milano_SVI\lang2img\0_Dataprocessing\views_4\ol2vJpnw2r7Ib4fZ-GqRIQ_090.jpg,ol2vJpnw2r7Ib4fZ-GqRIQ_090.jpg,0.23144531,street furniture benches,90,9.128707715,45.45456124,4,1
Q01_CLIP_0288_DBFW,Q01,"a safe, quiet place with lots of greenery where people can read outdoors",CLIP,288,42,MpPRLtCKFrge-4bW9n6Tqw,D:\AAG\Milano_SVI\lang2img\0_Dataprocessing\views_4\MpPRLtCKFrge-4bW9n6Tqw_090.jpg,MpPRLtCKFrge-4bW9n6Tqw_090.jpg,0.21447754,street benches,90,9.124198555,45.46810021,4,1
Q01_CLIP_0096_ZKLO,Q01,"a safe, quiet place with lots of greenery where people can read outdoors",CLIP,96,43,SJBmmyJEaUQdp8uZOsV0ZQ,D:\AAG\Milano_SVI\lang2img\0_Dataprocessing\views_4\SJBmmyJEaUQdp8uZOsV0ZQ_090.jpg,SJBmmyJEaUQdp8uZOsV0ZQ_090.jpg,0.22192383,bench near the curb,90,9.10314467,45.45316661,4,1
Q01_CLIP_0218_FTU2,Q01,"a safe, quiet place with lots of greenery where people can read outdoors",CLIP,218,44,JURr8QKCMRQKHsCmGGdD3A,D:\AAG\Milano_SVI\lang2img\0_Dataprocessing\views_4\JURr8QKCMRQKHsCmGGdD3A_090.jpg,JURr8QKCMRQKHsCmGGdD3A_090.jpg,0.21606445,public bench,90,9.065611367,45.44425728,4,1
Q01_CLIP_0253_4QXX,Q01,"a safe, quiet place with lots of greenery where people can read outdoors",CLIP,253,45,sS-DYPl-bciKZxSYo2vcIw,D:\AAG\Milano_SVI\lang2img\0_Dataprocessing\views_4\sS-DYPl-bciKZxSYo2vcIw_090.jpg,sS-DYPl-bciKZxSYo2vcIw_090.jpg,0.21533203,bench near the curb,90,9.2644666,45.5136041,4,1
Q01_CLIP_0174_Y72W,Q01,"a safe, quiet place with lots of greenery where people can read outdoors",CLIP,174,46,SAAcUC7PI5kco73RyNL1Nw,D:\AAG\Milano_SVI\lang2img\0_Dataprocessing\views_4\SAAcUC7PI5kco73RyNL1Nw_270.jpg,SAAcUC7PI5kco73RyNL1Nw_270.jpg,0.21716309,bench near the curb,270,9.1400802,45.5045566,4,1
Q01_CLIP_0108_11DP,Q01,"a safe, quiet place with lots of greenery where people can read outdoors",CLIP,108,47,vN1QCEwk65zN_P6njoB9zA,D:\AAG\Milano_SVI\lang2img\0_Dataprocessing\views_4\vN1QCEwk65zN_P6njoB9zA_090.jpg,vN1QCEwk65zN_P6njoB9zA_090.jpg,0.22131348,bench near the curb,90,9.2238211,45.4971892,4,1
Q01_CLIP_0107_RIXA,Q01,"a safe, quiet place with lots of greenery where people can read outdoors",CLIP,107,48,APY0g9qX0roKGCz_7UwUsg,D:\AAG\Milano_SVI\lang2img\0_Dataprocessing\views_4\APY0g9qX0roKGCz_7UwUsg_090.jpg,APY0g9qX0roKGCz_7UwUsg_090.jpg,0.22143555,bench near the curb,90,9.0795081,45.45742,4,1
Q01_CLIP_0134_UHZ1,Q01,"a safe, quiet place with lots of greenery where people can read outdoors",CLIP,134,49,2XjedaGRxz7tyQDq_-diVA,D:\AAG\Milano_SVI\lang2img\0_Dataprocessing\views_4\2XjedaGRxz7tyQDq_-diVA_090.jpg,2XjedaGRxz7tyQDq_-diVA_090.jpg,0.21936035,street benches,90,9.241292156,45.45776732,4,1
Q01_CLIP_0189_OS9X,Q01,"a safe, quiet place with lots of greenery where people can read outdoors",CLIP,189,50,78VSjtvBFRosQkVrt-gkNg,D:\AAG\Milano_SVI\lang2img\0_Dataprocessing\views_4\78VSjtvBFRosQkVrt-gkNg_270.jpg,78VSjtvBFRosQkVrt-gkNg_270.jpg,0.2166748,street furniture benches,270,9.193885,45.4796698,4,1
Q01_CLIP_0180_BPLJ,Q01,"a safe, quiet place with lots of greenery where people can read outdoors",CLIP,180,51,G-v-K6-wbpzmTIRMhT1akA,D:\AAG\Milano_SVI\lang2img\0_Dataprocessing\views_4\G-v-K6-wbpzmTIRMhT1akA_090.jpg,G-v-K6-wbpzmTIRMhT1akA_090.jpg,0.21691895,benches along the street,90,9.203848204,45.43850447,4,1
Q01_CLIP_0011_ZBIK,Q01,"a safe, quiet place with lots of greenery where people can read outdoors",CLIP,11,52,9q9OaIn8H_PyyjlN6bFnDw,D:\AAG\Milano_SVI\lang2img\0_Dataprocessing\views_4\9q9OaIn8H_PyyjlN6bFnDw_090.jpg,9q9OaIn8H_PyyjlN6bFnDw_090.jpg,0.23864746,bench near the curb,90,9.209304785,45.52189128,4,1
Q01_CLIP_0104_YIHA,Q01,"a safe, quiet place with lots of greenery where people can read outdoors",CLIP,104,53,XpdQSh3ilhLx_L9qLDqYug,D:\AAG\Milano_SVI\lang2img\0_Dataprocessing\views_4\XpdQSh3ilhLx_L9qLDqYug_090.jpg,XpdQSh3ilhLx_L9qLDqYug_090.jpg,0.22155762,street furniture benches,90,9.1906295,45.4432011,4,1
Q01_CLIP_0042_4CIY,Q01,"a safe, quiet place with lots of greenery where people can read outdoors",CLIP,42,54,i8hxPaV2cZgPMpWTuS4HdQ,D:\AAG\Milano_SVI\lang2img\0_Dataprocessing\views_4\i8hxPaV2cZgPMpWTuS4HdQ_000.jpg,i8hxPaV2cZgPMpWTuS4HdQ_000.jpg,0.2265625,street furniture benches,0,9.2403996,45.4358076,4,1
Q01_CLIP_0068_XA3K,Q01,"a safe, quiet place with lots of greenery where people can read outdoors",CLIP,68,55,SxRC98-L3N-3nGiVyp2y4g,D:\AAG\Milano_SVI\lang2img\0_Dataprocessing\views_4\SxRC98-L3N-3nGiVyp2y4g_270.jpg,SxRC98-L3N-3nGiVyp2y4g_270.jpg,0.22399902,street benches,270,9.214123148,45.47282192,4,1
Q01_CLIP_0012_CIDK,Q01,"a safe, quiet place with lots of greenery where people can read outdoors",CLIP,12,56,CPm0N_iyCtHDyuj8U9Im9Q,D:\AAG\Milano_SVI\lang2img\0_Dataprocessing\views_4\CPm0N_iyCtHDyuj8U9Im9Q_090.jpg,CPm0N_iyCtHDyuj8U9Im9Q_090.jpg,0.23864746,bench near the curb,90,9.106645458,45.51150358,4,1
Q01_CLIP_0275_3UVU,Q01,"a safe, quiet place with lots of greenery where people can read outdoors",CLIP,275,57,49LllN23RpTrbIU1q-PytQ,D:\AAG\Milano_SVI\lang2img\0_Dataprocessing\views_4\49LllN23RpTrbIU1q-PytQ_000.jpg,49LllN23RpTrbIU1q-PytQ_000.jpg,0.21472168,street benches,0,9.1831176,45.4733298,4,1
Q01_CLIP_0017_41IB,Q01,"a safe, quiet place with lots of greenery where people can read outdoors",CLIP,17,58,dDl8SoO02Yg0YE8mstmGuQ,D:\AAG\Milano_SVI\lang2img\0_Dataprocessing\views_4\dDl8SoO02Yg0YE8mstmGuQ_090.jpg,dDl8SoO02Yg0YE8mstmGuQ_090.jpg,0.23522949,benches,90,9.180222624,45.511572,4,1
Q01_CLIP_0278_VMUH,Q01,"a safe, quiet place with lots of greenery where people can read outdoors",CLIP,278,59,jFpWsypnENiK1nec0Fwzpw,D:\AAG\Milano_SVI\lang2img\0_Dataprocessing\views_4\jFpWsypnENiK1nec0Fwzpw_270.jpg,jFpWsypnENiK1nec0Fwzpw_270.jpg,0.21472168,street benches,270,9.18328082,45.43816809,4,1
Q01_CLIP_0008_4V30,Q01,"a safe, quiet place with lots of greenery where people can read outdoors",CLIP,8,60,LbFplj6y9g16mjiCOes4QQ,D:\AAG\Milano_SVI\lang2img\0_Dataprocessing\views_4\LbFplj6y9g16mjiCOes4QQ_090.jpg,LbFplj6y9g16mjiCOes4QQ_090.jpg,0.24060059,bench near the curb,90,9.126318469,45.51878703,4,1
Q01_CLIP_0184_6GVW,Q01,"a safe, quiet place with lots of greenery where people can read outdoors",CLIP,184,61,Ngcu0CASS5gxStMzmfZEWA,D:\AAG\Milano_SVI\lang2img\0_Dataprocessing\views_4\Ngcu0CASS5gxStMzmfZEWA_270.jpg,Ngcu0CASS5gxStMzmfZEWA_270.jpg,0.21679688,street furniture benches,270,9.1927039,45.4580309,4,1
Q01_CLIP_0258_FEJG,Q01,"a safe, quiet place with lots of greenery where people can read outdoors",CLIP,258,62,f7FSbukaXo47Vie_xjJIOA,D:\AAG\Milano_SVI\lang2img\0_Dataprocessing\views_4\f7FSbukaXo47Vie_xjJIOA_000.jpg,f7FSbukaXo47Vie_xjJIOA_000.jpg,0.21520996,street benches,0,9.182117509,45.45388749,4,1
Q01_CLIP_0208_V55P,Q01,"a safe, quiet place with lots of greenery where people can read outdoors",CLIP,208,63,kLrB2SRBRgfNgSKvfVNuuQ,D:\AAG\Milano_SVI\lang2img\0_Dataprocessing\views_4\kLrB2SRBRgfNgSKvfVNuuQ_090.jpg,kLrB2SRBRgfNgSKvfVNuuQ_090.jpg,0.21618652,bench near the curb,90,9.146616451,45.49230479,4,1
Q01_CLIP_0001_XAJI,Q01,"a safe, quiet place with lots of greenery where people can read outdoors",CLIP,1,64,L93lz-apm9d7ThB9ldi6YQ,D:\AAG\Milano_SVI\lang2img\0_Dataprocessing\views_4\L93lz-apm9d7ThB9ldi6YQ_090.jpg,L93lz-apm9d7ThB9ldi6YQ_090.jpg,0.25830078,bench near the curb,90,9.257613654,45.45434569,4,1
Q01_CLIP_0120_VZ41,Q01,"a safe, quiet place with lots of greenery where people can read outdoors",CLIP,120,65,Hupd9lRTDyQRi8o8ZdCXVQ,D:\AAG\Milano_SVI\lang2img\0_Dataprocessing\views_4\Hupd9lRTDyQRi8o8ZdCXVQ_270.jpg,Hupd9lRTDyQRi8o8ZdCXVQ_270.jpg,0.22009277,street furniture benches,270,9.2212663,45.4415216,4,1
Q01_CLIP_0181_D84U,Q01,"a safe, quiet place with lots of greenery where people can read outdoors",CLIP,181,66,1gDkTRlJVFl3nhqVt0GY4A,D:\AAG\Milano_SVI\lang2img\0_Dataprocessing\views_4\1gDkTRlJVFl3nhqVt0GY4A_090.jpg,1gDkTRlJVFl3nhqVt0GY4A_090.jpg,0.21679688,bench near the curb,90,9.204009897,45.50204019,4,1
Q01_CLIP_0111_Y9V8,Q01,"a safe, quiet place with lots of greenery where people can read outdoors",CLIP,111,67,YJoZJNoayy8-SzhKpvwLYw,D:\AAG\Milano_SVI\lang2img\0_Dataprocessing\views_4\YJoZJNoayy8-SzhKpvwLYw_090.jpg,YJoZJNoayy8-SzhKpvwLYw_090.jpg,0.22094727,bench near the curb,90,9.244612889,45.42860709,4,1
Q01_CLIP_0112_6WZS,Q01,"a safe, quiet place with lots of greenery where people can read outdoors",CLIP,112,68,BklHVtBG7j00DXvl6j-3mg,D:\AAG\Milano_SVI\lang2img\0_Dataprocessing\views_4\BklHVtBG7j00DXvl6j-3mg_270.jpg,BklHVtBG7j00DXvl6j-3mg_270.jpg,0.22094727,bench near the curb,270,9.206926302,45.41202167,4,1
Q01_CLIP_0062_HZIO,Q01,"a safe, quiet place with lots of greenery where people can read outdoors",CLIP,62,69,OKUsuaSf4XWj1Xqk_jCO7Q,D:\AAG\Milano_SVI\lang2img\0_Dataprocessing\views_4\OKUsuaSf4XWj1Xqk_jCO7Q_270.jpg,OKUsuaSf4XWj1Xqk_jCO7Q_270.jpg,0.2241211,bench near the curb,270,9.2363596,45.4811444,4,1
Q01_CLIP_0028_Q85J,Q01,"a safe, quiet place with lots of greenery where people can read outdoors",CLIP,28,70,LVERDH0zhSKZj7-7fTnHGw,D:\AAG\Milano_SVI\lang2img\0_Dataprocessing\views_4\LVERDH0zhSKZj7-7fTnHGw_000.jpg,LVERDH0zhSKZj7-7fTnHGw_000.jpg,0.2298584,bench near the curb,0,9.197877622,45.46331569,4,1
Q01_CLIP_0262_2SDS,Q01,"a safe, quiet place with lots of greenery where people can read outdoors",CLIP,262,71,6x1sD1P77HLE6P8aCm7jIw,D:\AAG\Milano_SVI\lang2img\0_Dataprocessing\views_4\6x1sD1P77HLE6P8aCm7jIw_090.jpg,6x1sD1P77HLE6P8aCm7jIw_090.jpg,0.21508789,benches along the street,90,9.127164385,45.49468399,4,1
Q01_CLIP_0092_NUJZ,Q01,"a safe, quiet place with lots of greenery where people can read outdoors",CLIP,92,72,c2ceBXn1djIQCMLYHzXG8A,D:\AAG\Milano_SVI\lang2img\0_Dataprocessing\views_4\c2ceBXn1djIQCMLYHzXG8A_270.jpg,c2ceBXn1djIQCMLYHzXG8A_270.jpg,0.22229004,bench near the curb,270,9.089113834,45.47749332,4,1
Q01_CLIP_0013_WNNH,Q01,"a safe, quiet place with lots of greenery where people can read outdoors",CLIP,13,73,LFhvjdVPGLVB_zwlNz2deQ,D:\AAG\Milano_SVI\lang2img\0_Dataprocessing\views_4\LFhvjdVPGLVB_zwlNz2deQ_270.jpg,LFhvjdVPGLVB_zwlNz2deQ_270.jpg,0.23852539,bench near the curb,270,9.1302333,45.5024458,4,1
Q01_CLIP_0142_43D8,Q01,"a safe, quiet place with lots of greenery where people can read outdoors",CLIP,142,74,6tKEKufAMEd-Zn1fc_vzAw,D:\AAG\Milano_SVI\lang2img\0_Dataprocessing\views_4\6tKEKufAMEd-Zn1fc_vzAw_090.jpg,6tKEKufAMEd-Zn1fc_vzAw_090.jpg,0.21875,bench near the curb,90,9.1459197,45.5127065,4,1
Q01_CLIP_0223_MVXP,Q01,"a safe, quiet place with lots of greenery where people can read outdoors",CLIP,223,75,hxvw2Al_wOkZpc9_98IJnQ,D:\AAG\Milano_SVI\lang2img\0_Dataprocessing\views_4\hxvw2Al_wOkZpc9_98IJnQ_270.jpg,hxvw2Al_wOkZpc9_98IJnQ_270.jpg,0.21594238,benches on the sidewalk,270,9.216681169,45.44354657,4,1
Q01_CLIP_0038_HL9X,Q01,"a safe, quiet place with lots of greenery where people can read outdoors",CLIP,38,76,YPlzG5DioMcsgLfhdRU-dA,D:\AAG\Milano_SVI\lang2img\0_Dataprocessing\views_4\YPlzG5DioMcsgLfhdRU-dA_090.jpg,YPlzG5DioMcsgLfhdRU-dA_090.jpg,0.22717285,street furniture benches,90,9.176889163,45.46660586,4,1
Q01_CLIP_0100_PUXQ,Q01,"a safe, quiet place with lots of greenery where people can read outdoors",CLIP,100,77,rNl6H9tzTR83MlGBEN4__g,D:\AAG\Milano_SVI\lang2img\0_Dataprocessing\views_4\rNl6H9tzTR83MlGBEN4__g_090.jpg,rNl6H9tzTR83MlGBEN4__g_090.jpg,0.22180176,bench near the curb,90,9.1908259,45.4422549,4,1
Q01_CLIP_0155_0LZJ,Q01,"a safe, quiet place with lots of greenery where people can read outdoors",CLIP,155,78,75lbqv5fOm3xXfHTbwaZdw,D:\AAG\Milano_SVI\lang2img\0_Dataprocessing\views_4\75lbqv5fOm3xXfHTbwaZdw_090.jpg,75lbqv5fOm3xXfHTbwaZdw_090.jpg,0.21801758,bench near the curb,90,9.189029891,45.44205407,4,1
Q01_CLIP_0110_I4Q2,Q01,"a safe, quiet place with lots of greenery where people can read outdoors",CLIP,110,79,VJTF4WA0CXTRd7Rj-CoXCg,D:\AAG\Milano_SVI\lang2img\0_Dataprocessing\views_4\VJTF4WA0CXTRd7Rj-CoXCg_090.jpg,VJTF4WA0CXTRd7Rj-CoXCg_090.jpg,0.22106934,bench near the curb,90,9.066487029,45.49333955,4,1
Q01_CLIP_0201_KKV9,Q01,"a safe, quiet place with lots of greenery where people can read outdoors",CLIP,201,80,pGX4AUYZ9b1-GAB8KYK_jA,D:\AAG\Milano_SVI\lang2img\0_Dataprocessing\views_4\pGX4AUYZ9b1-GAB8KYK_jA_000.jpg,pGX4AUYZ9b1-GAB8KYK_jA_000.jpg,0.21643066,public bench,0,9.1392118,45.5147622,4,1
Q01_CLIP_0231_X4W6,Q01,"a safe, quiet place with lots of greenery where people can read outdoors",CLIP,231,81,yQ7JEiLculauP8ovU1IvpQ,D:\AAG\Milano_SVI\lang2img\0_Dataprocessing\views_4\yQ7JEiLculauP8ovU1IvpQ_090.jpg,yQ7JEiLculauP8ovU1IvpQ_090.jpg,0.21569824,bench near the curb,90,9.066838938,45.46234541,4,1
Q01_CLIP_0043_HE7U,Q01,"a safe, quiet place with lots of greenery where people can read outdoors",CLIP,43,82,VahihbthkdDVRGmumgjzrg,D:\AAG\Milano_SVI\lang2img\0_Dataprocessing\views_4\VahihbthkdDVRGmumgjzrg_270.jpg,VahihbthkdDVRGmumgjzrg_270.jpg,0.2265625,benches along the street,270,9.23453,45.4841705,4,1
Q01_CLIP_0163_QPGB,Q01,"a safe, quiet place with lots of greenery where people can read outdoors",CLIP,163,83,tcNqJHbdG0Tmi_1SVy7icg,D:\AAG\Milano_SVI\lang2img\0_Dataprocessing\views_4\tcNqJHbdG0Tmi_1SVy7icg_270.jpg,tcNqJHbdG0Tmi_1SVy7icg_270.jpg,0.21777344,street benches,270,9.1290017,45.4665026,4,1
Q01_CLIP_0219_GC5W,Q01,"a safe, quiet place with lots of greenery where people can read outdoors",CLIP,219,84,Zk2m-bH4VcpnUi1Gpawy7g,D:\AAG\Milano_SVI\lang2img\0_Dataprocessing\views_4\Zk2m-bH4VcpnUi1Gpawy7g_270.jpg,Zk2m-bH4VcpnUi1Gpawy7g_270.jpg,0.21606445,street benches,270,9.153671825,45.45366934,4,1
Q01_CLIP_0087_L58K,Q01,"a safe, quiet place with lots of greenery where people can read outdoors",CLIP,87,85,yJkj4MmdqGb0-XWjuvvWvw,D:\AAG\Milano_SVI\lang2img\0_Dataprocessing\views_4\yJkj4MmdqGb0-XWjuvvWvw_090.jpg,yJkj4MmdqGb0-XWjuvvWvw_090.jpg,0.22265625,street benches,90,9.2236945,45.4776542,4,1
Q01_CLIP_0197_J49I,Q01,"a safe, quiet place with lots of greenery where people can read outdoors",CLIP,197,86,0ES4lvXqMRaD48lzvJi3Sg,D:\AAG\Milano_SVI\lang2img\0_Dataprocessing\views_4\0ES4lvXqMRaD48lzvJi3Sg_270.jpg,0ES4lvXqMRaD48lzvJi3Sg_270.jpg,0.21655273,bench near the curb,270,9.206839681,45.41140218,4,1
Q01_CLIP_0199_55J2,Q01,"a safe, quiet place with lots of greenery where people can read outdoors",CLIP,199,87,PUeqPsN7QOwgmsS5ArMk_A,D:\AAG\Milano_SVI\lang2img\0_Dataprocessing\views_4\PUeqPsN7QOwgmsS5ArMk_A_270.jpg,PUeqPsN7QOwgmsS5ArMk_A_270.jpg,0.21655273,bench near the curb,270,9.1527455,45.4552888,4,1
Q01_CLIP_0049_I7P5,Q01,"a safe, quiet place with lots of greenery where people can read outdoors",CLIP,49,88,d8bUw0mEy4dCFKdGzlwqRg,D:\AAG\Milano_SVI\lang2img\0_Dataprocessing\views_4\d8bUw0mEy4dCFKdGzlwqRg_180.jpg,d8bUw0mEy4dCFKdGzlwqRg_180.jpg,0.22509766,street benches,180,9.1732363,45.4762248,4,1
Q01_CLIP_0016_9XUY,Q01,"a safe, quiet place with lots of greenery where people can read outdoors",CLIP,16,89,o53zYF0dsqn6qUtw6co6Gw,D:\AAG\Milano_SVI\lang2img\0_Dataprocessing\views_4\o53zYF0dsqn6qUtw6co6Gw_090.jpg,o53zYF0dsqn6qUtw6co6Gw_090.jpg,0.23535156,public bench,90,9.104430883,45.49215309,4,1
Q01_CLIP_0188_QLL8,Q01,"a safe, quiet place with lots of greenery where people can read outdoors",CLIP,188,90,9ByMPPKETJ203AaoiYBZpw,D:\AAG\Milano_SVI\lang2img\0_Dataprocessing\views_4\9ByMPPKETJ203AaoiYBZpw_270.jpg,9ByMPPKETJ203AaoiYBZpw_270.jpg,0.21679688,benches along the street,270,9.151849012,45.45628029,4,1
Q01_CLIP_0242_DIA5,Q01,"a safe, quiet place with lots of greenery where people can read outdoors",CLIP,242,91,E-m7PcfPIzbq5a9LOa9IQQ,D:\AAG\Milano_SVI\lang2img\0_Dataprocessing\views_4\E-m7PcfPIzbq5a9LOa9IQQ_090.jpg,E-m7PcfPIzbq5a9LOa9IQQ_090.jpg,0.21557617,bench near the curb,90,9.089174764,45.46435635,4,1
Q01_CLIP_0122_48P0,Q01,"a safe, quiet place with lots of greenery where people can read outdoors",CLIP,122,92,1ePvhtJBppJqQRkSJVU4HA,D:\AAG\Milano_SVI\lang2img\0_Dataprocessing\views_4\1ePvhtJBppJqQRkSJVU4HA_270.jpg,1ePvhtJBppJqQRkSJVU4HA_270.jpg,0.2199707,bench near the curb,270,9.151672809,45.47676072,4,1
Q01_CLIP_0212_44NL,Q01,"a safe, quiet place with lots of greenery where people can read outdoors",CLIP,212,93,co7aGdotjirG7jIWaRXh4A,D:\AAG\Milano_SVI\lang2img\0_Dataprocessing\views_4\co7aGdotjirG7jIWaRXh4A_270.jpg,co7aGdotjirG7jIWaRXh4A_270.jpg,0.21606445,public bench,270,9.194237414,45.44789132,4,1
Q01_CLIP_0084_2D54,Q01,"a safe, quiet place with lots of greenery where people can read outdoors",CLIP,84,94,E6xhDOPDr6qJ0cdbNRyAQA,D:\AAG\Milano_SVI\lang2img\0_Dataprocessing\views_4\E6xhDOPDr6qJ0cdbNRyAQA_090.jpg,E6xhDOPDr6qJ0cdbNRyAQA_090.jpg,0.22277832,bench near the curb,90,9.163500883,45.42520067,4,1
Q01_CLIP_0143_W3ZP,Q01,"a safe, quiet place with lots of greenery where people can read outdoors",CLIP,143,95,ks35yQ_tsKMbPfe2ctskPw,D:\AAG\Milano_SVI\lang2img\0_Dataprocessing\views_4\ks35yQ_tsKMbPfe2ctskPw_090.jpg,ks35yQ_tsKMbPfe2ctskPw_090.jpg,0.21862793,bench near the curb,90,9.163518957,45.53300754,4,1
Q01_CLIP_0094_0YNC,Q01,"a safe, quiet place with lots of greenery where people can read outdoors",CLIP,94,96,bdokdBQkKE5c667pun3jiQ,D:\AAG\Milano_SVI\lang2img\0_Dataprocessing\views_4\bdokdBQkKE5c667pun3jiQ_090.jpg,bdokdBQkKE5c667pun3jiQ_090.jpg,0.22216797,public bench,90,9.115006644,45.46168139,4,1
Q01_CLIP_0076_6T4U,Q01,"a safe, quiet place with lots of greenery where people can read outdoors",CLIP,76,97,T0-f_xnQs4lMBleLi1f5Rw,D:\AAG\Milano_SVI\lang2img\0_Dataprocessing\views_4\T0-f_xnQs4lMBleLi1f5Rw_090.jpg,T0-f_xnQs4lMBleLi1f5Rw_090.jpg,0.22314453,bench near the curb,90,9.1989011,45.4769246,4,1
Q01_CLIP_0251_DYT9,Q01,"a safe, quiet place with lots of greenery where people can read outdoors",CLIP,251,98,xWfeUpq_me2Db2b4Zu6qWA,D:\AAG\Milano_SVI\lang2img\0_Dataprocessing\views_4\xWfeUpq_me2Db2b4Zu6qWA_270.jpg,xWfeUpq_me2Db2b4Zu6qWA_270.jpg,0.21533203,street furniture benches,270,9.2203445,45.4500683,4,1
Q01_CLIP_0138_ZCYW,Q01,"a safe, quiet place with lots of greenery where people can read outdoors",CLIP,138,99,dOLbr02ny5HCPf87bef2dw,D:\AAG\Milano_SVI\lang2img\0_Dataprocessing\views_4\dOLbr02ny5HCPf87bef2dw_090.jpg,dOLbr02ny5HCPf87bef2dw_090.jpg,0.21911621,street furniture benches,90,9.139342295,45.49453804,4,1
Q01_CLIP_0103_WM31,Q01,"a safe, quiet place with lots of greenery where people can read outdoors",CLIP,103,100,8-N7giINuYTNSB4Pfn3f_A,D:\AAG\Milano_SVI\lang2img\0_Dataprocessing\views_4\8-N7giINuYTNSB4Pfn3f_A_270.jpg,8-N7giINuYTNSB4Pfn3f_A_270.jpg,0.22155762,public bench,270,9.202384168,45.47700502,4,1
Q01_CLIP_0091_0LVS,Q01,"a safe, quiet place with lots of greenery where people can read outdoors",CLIP,91,101,qcC_1QrQmlTVRSR2TvK20g,D:\AAG\Milano_SVI\lang2img\0_Dataprocessing\views_4\qcC_1QrQmlTVRSR2TvK20g_090.jpg,qcC_1QrQmlTVRSR2TvK20g_090.jpg,0.22241211,street furniture benches,90,9.2139783,45.5215975,4,1
Q01_CLIP_0240_ATQY,Q01,"a safe, quiet place with lots of greenery where people can read outdoors",CLIP,240,102,MI-02Lwk6W1_dPou8MTLgg,D:\AAG\Milano_SVI\lang2img\0_Dataprocessing\views_4\MI-02Lwk6W1_dPou8MTLgg_090.jpg,MI-02Lwk6W1_dPou8MTLgg_090.jpg,0.21557617,street benches,90,9.196865454,45.4998608,4,1
Q01_CLIP_0205_1B0Z,Q01,"a safe, quiet place with lots of greenery where people can read outdoors",CLIP,205,103,SAwFSHFNwMQDybtn5Q97Ug,D:\AAG\Milano_SVI\lang2img\0_Dataprocessing\views_4\SAwFSHFNwMQDybtn5Q97Ug_270.jpg,SAwFSHFNwMQDybtn5Q97Ug_270.jpg,0.2163086,bench near the curb,270,9.180542715,45.41479536,4,1
Q01_CLIP_0227_JUY0,Q01,"a safe, quiet place with lots of greenery where people can read outdoors",CLIP,227,104,0HHj-wiPiKdey5yPDiC_lg,D:\AAG\Milano_SVI\lang2img\0_Dataprocessing\views_4\0HHj-wiPiKdey5yPDiC_lg_270.jpg,0HHj-wiPiKdey5yPDiC_lg_270.jpg,0.21582031,benches on the sidewalk,270,9.212027309,45.47253164,4,1
Q01_CLIP_0265_ROYR,Q01,"a safe, quiet place with lots of greenery where people can read outdoors",CLIP,265,105,xua8570ebkVKT_CoQRZsRA,D:\AAG\Milano_SVI\lang2img\0_Dataprocessing\views_4\xua8570ebkVKT_CoQRZsRA_270.jpg,xua8570ebkVKT_CoQRZsRA_270.jpg,0.21508789,benches along the street,270,9.162442002,45.48184977,4,1
Q01_CLIP_0089_7E8G,Q01,"a safe, quiet place with lots of greenery where people can read outdoors",CLIP,89,106,C24QmWjKApbRnWnyzFSyKw,D:\AAG\Milano_SVI\lang2img\0_Dataprocessing\views_4\C24QmWjKApbRnWnyzFSyKw_090.jpg,C24QmWjKApbRnWnyzFSyKw_090.jpg,0.22253418,a bench,90,9.064660682,45.5026807,4,1
Q01_CLIP_0224_J4HN,Q01,"a safe, quiet place with lots of greenery where people can read outdoors",CLIP,224,107,bXuBrvr92OJgiSHzO8tGBw,D:\AAG\Milano_SVI\lang2img\0_Dataprocessing\views_4\bXuBrvr92OJgiSHzO8tGBw_270.jpg,bXuBrvr92OJgiSHzO8tGBw_270.jpg,0.21594238,bench near the curb,270,9.1240521,45.5026958,4,1
Q01_CLIP_0124_PBMY,Q01,"a safe, quiet place with lots of greenery where people can read outdoors",CLIP,124,108,89mi_E-infTa4m4NdXs-OA,D:\AAG\Milano_SVI\lang2img\0_Dataprocessing\views_4\89mi_E-infTa4m4NdXs-OA_270.jpg,89mi_E-infTa4m4NdXs-OA_270.jpg,0.2199707,street furniture benches,270,9.18907947,45.4896132,4,1
Q01_CLIP_0263_8B25,Q01,"a safe, quiet place with lots of greenery where people can read outdoors",CLIP,263,109,x0BMGgOcQc29ihfx0Oir8g,D:\AAG\Milano_SVI\lang2img\0_Dataprocessing\views_4\x0BMGgOcQc29ihfx0Oir8g_000.jpg,x0BMGgOcQc29ihfx0Oir8g_000.jpg,0.21508789,street benches,0,9.1853221,45.4579508,4,1
Q01_CLIP_0229_K2VM,Q01,"a safe, quiet place with lots of greenery where people can read outdoors",CLIP,229,110,nVmC5vPO8zpmgKQDjbTIEg,D:\AAG\Milano_SVI\lang2img\0_Dataprocessing\views_4\nVmC5vPO8zpmgKQDjbTIEg_090.jpg,nVmC5vPO8zpmgKQDjbTIEg_090.jpg,0.21582031,street benches,90,9.185631837,45.47895853,4,1
Q01_CLIP_0280_N1U3,Q01,"a safe, quiet place with lots of greenery where people can read outdoors",CLIP,280,111,xGngaov8CPJO6fsjxy_7_g,D:\AAG\Milano_SVI\lang2img\0_Dataprocessing\views_4\xGngaov8CPJO6fsjxy_7_g_090.jpg,xGngaov8CPJO6fsjxy_7_g_090.jpg,0.21472168,public bench,90,9.201060636,45.46394487,4,1
Q01_CLIP_0236_3R30,Q01,"a safe, quiet place with lots of greenery where people can read outdoors",CLIP,236,112,1q-AU2qcXzQr8VlTiASzUg,D:\AAG\Milano_SVI\lang2img\0_Dataprocessing\views_4\1q-AU2qcXzQr8VlTiASzUg_090.jpg,1q-AU2qcXzQr8VlTiASzUg_090.jpg,0.21569824,bench near the curb,90,9.115940218,45.45989578,4,1
Q01_CLIP_0269_VDZ4,Q01,"a safe, quiet place with lots of greenery where people can read outdoors",CLIP,269,113,OyFey7TwV5GrhicRry6oiA,D:\AAG\Milano_SVI\lang2img\0_Dataprocessing\views_4\OyFey7TwV5GrhicRry6oiA_270.jpg,OyFey7TwV5GrhicRry6oiA_270.jpg,0.21484375,street benches,270,9.2291802,45.4823121,4,1
Q01_CLIP_0156_JEGE,Q01,"a safe, quiet place with lots of greenery where people can read outdoors",CLIP,156,114,IyEbGKGSa9PY7rFKpqsMmQ,D:\AAG\Milano_SVI\lang2img\0_Dataprocessing\views_4\IyEbGKGSa9PY7rFKpqsMmQ_270.jpg,IyEbGKGSa9PY7rFKpqsMmQ_270.jpg,0.21801758,public bench,270,9.207498006,45.51427745,4,1
Q01_CLIP_0168_SQP4,Q01,"a safe, quiet place with lots of greenery where people can read outdoors",CLIP,168,115,8CmnOoW4myRKI0413fUHDw,D:\AAG\Milano_SVI\lang2img\0_Dataprocessing\views_4\8CmnOoW4myRKI0413fUHDw_090.jpg,8CmnOoW4myRKI0413fUHDw_090.jpg,0.2175293,bench near the curb,90,9.192885765,45.51130593,4,1
Q01_CLIP_0146_J43D,Q01,"a safe, quiet place with lots of greenery where people can read outdoors",CLIP,146,116,Gi4qvi0qirUjNtQ5eDtAJQ,D:\AAG\Milano_SVI\lang2img\0_Dataprocessing\views_4\Gi4qvi0qirUjNtQ5eDtAJQ_090.jpg,Gi4qvi0qirUjNtQ5eDtAJQ_090.jpg,0.21850586,benches along the street,90,9.202037192,45.4755927,4,1
Q01_CLIP_0004_AHXT,Q01,"a safe, quiet place with lots of greenery where people can read outdoors",CLIP,4,117,aD2j2wCCnw4tnnM_y4aOYQ,D:\AAG\Milano_SVI\lang2img\0_Dataprocessing\views_4\aD2j2wCCnw4tnnM_y4aOYQ_270.jpg,aD2j2wCCnw4tnnM_y4aOYQ_270.jpg,0.24450684,public bench,270,9.222209123,45.44105568,4,1
Q01_CLIP_0234_GET8,Q01,"a safe, quiet place with lots of greenery where people can read outdoors",CLIP,234,118,Jc2sy1tO6giL2x_ysL7qpw,D:\AAG\Milano_SVI\lang2img\0_Dataprocessing\views_4\Jc2sy1tO6giL2x_ysL7qpw_270.jpg,Jc2sy1tO6giL2x_ysL7qpw_270.jpg,0.21569824,bench near the curb,270,9.0741241,45.4975273,4,1
Q01_CLIP_0171_XFGC,Q01,"a safe, quiet place with lots of greenery where people can read outdoors",CLIP,171,119,JXumRcLVtvDprXYPQF4tng,D:\AAG\Milano_SVI\lang2img\0_Dataprocessing\views_4\JXumRcLVtvDprXYPQF4tng_090.jpg,JXumRcLVtvDprXYPQF4tng_090.jpg,0.21740723,public bench,90,9.154259962,45.44025016,4,1
Q01_CLIP_0046_0Y9D,Q01,"a safe, quiet place with lots of greenery where people can read outdoors",CLIP,46,120,TH04CWk_FwtUkbCEqtZ0aw,D:\AAG\Milano_SVI\lang2img\0_Dataprocessing\views_4\TH04CWk_FwtUkbCEqtZ0aw_090.jpg,TH04CWk_FwtUkbCEqtZ0aw_090.jpg,0.2253418,bench near the curb,90,9.101161265,45.45187401,4,1
Q01_CLIP_0157_T1GH,Q01,"a safe, quiet place with lots of greenery where people can read outdoors",CLIP,157,121,Z6U-YzFXu_6-GJBa_oF7qw,D:\AAG\Milano_SVI\lang2img\0_Dataprocessing\views_4\Z6U-YzFXu_6-GJBa_oF7qw_180.jpg,Z6U-YzFXu_6-GJBa_oF7qw_180.jpg,0.21789551,bench near the curb,180,9.1709021,45.470471,4,1
Q01_CLIP_0132_X18H,Q01,"a safe, quiet place with lots of greenery where people can read outdoors",CLIP,132,122,yAZg_4u5rH4yWD9gkPug7A,D:\AAG\Milano_SVI\lang2img\0_Dataprocessing\views_4\yAZg_4u5rH4yWD9gkPug7A_090.jpg,yAZg_4u5rH4yWD9gkPug7A_090.jpg,0.21948242,bench near the curb,90,9.176792857,45.43061888,4,1
Q01_CLIP_0102_2GDS,Q01,"a safe, quiet place with lots of greenery where people can read outdoors",CLIP,102,123,b846IVRb9ZO2uJ0I7UeKTQ,D:\AAG\Milano_SVI\lang2img\0_Dataprocessing\views_4\b846IVRb9ZO2uJ0I7UeKTQ_090.jpg,b846IVRb9ZO2uJ0I7UeKTQ_090.jpg,0.22155762,bench near the curb,90,9.139159062,45.49094671,4,1
Q01_CLIP_0066_55NF,Q01,"a safe, quiet place with lots of greenery where people can read outdoors",CLIP,66,124,47ISopIvBl7w_q-wxCDpOA,D:\AAG\Milano_SVI\lang2img\0_Dataprocessing\views_4\47ISopIvBl7w_q-wxCDpOA_270.jpg,47ISopIvBl7w_q-wxCDpOA_270.jpg,0.22399902,public bench,270,9.2051241,45.4519764,4,1
Q01_CLIP_0057_CVS4,Q01,"a safe, quiet place with lots of greenery where people can read outdoors",CLIP,57,125,0QntWojlo1Vtca5f4BrOGw,D:\AAG\Milano_SVI\lang2img\0_Dataprocessing\views_4\0QntWojlo1Vtca5f4BrOGw_270.jpg,0QntWojlo1Vtca5f4BrOGw_270.jpg,0.2244873,benches,270,9.2270257,45.479363,4,1
Q01_CLIP_0039_PSEI,Q01,"a safe, quiet place with lots of greenery where people can read outdoors",CLIP,39,126,TIZ4Z_qo3zmFyQS5s7Vhbw,D:\AAG\Milano_SVI\lang2img\0_Dataprocessing\views_4\TIZ4Z_qo3zmFyQS5s7Vhbw_270.jpg,TIZ4Z_qo3zmFyQS5s7Vhbw_270.jpg,0.22680664,bench near the curb,270,9.227442177,45.50338046,4,1
Q01_CLIP_0172_AQVK,Q01,"a safe, quiet place with lots of greenery where people can read outdoors",CLIP,172,127,CBGoQfYN-w6ripN2FTDPRg,D:\AAG\Milano_SVI\lang2img\0_Dataprocessing\views_4\CBGoQfYN-w6ripN2FTDPRg_180.jpg,CBGoQfYN-w6ripN2FTDPRg_180.jpg,0.21728516,benches on the sidewalk,180,9.1506151,45.4771587,4,1
Q01_CLIP_0125_OFQE,Q01,"a safe, quiet place with lots of greenery where people can read outdoors",CLIP,125,128,YsoM1-d4WDY0CDMDSCxZ6w,D:\AAG\Milano_SVI\lang2img\0_Dataprocessing\views_4\YsoM1-d4WDY0CDMDSCxZ6w_270.jpg,YsoM1-d4WDY0CDMDSCxZ6w_270.jpg,0.2199707,bench near the curb,270,9.0758013,45.449484,4,1
Q01_CLIP_0247_Y08P,Q01,"a safe, quiet place with lots of greenery where people can read outdoors",CLIP,247,129,pE0KQxK1UuNMRnhkLmodTg,D:\AAG\Milano_SVI\lang2img\0_Dataprocessing\views_4\pE0KQxK1UuNMRnhkLmodTg_270.jpg,pE0KQxK1UuNMRnhkLmodTg_270.jpg,0.2154541,public bench,270,9.207951254,45.48748808,4,1
Q01_CLIP_0150_ZJA8,Q01,"a safe, quiet place with lots of greenery where people can read outdoors",CLIP,150,130,L0Tc5-zSlahaso824q7HTg,D:\AAG\Milano_SVI\lang2img\0_Dataprocessing\views_4\L0Tc5-zSlahaso824q7HTg_090.jpg,L0Tc5-zSlahaso824q7HTg_090.jpg,0.21826172,bench near the curb,90,9.250906635,45.48584362,4,1
Q01_CLIP_0261_0S0R,Q01,"a safe, quiet place with lots of greenery where people can read outdoors",CLIP,261,131,dt0DXwsBtP8d_LAwfHztVw,D:\AAG\Milano_SVI\lang2img\0_Dataprocessing\views_4\dt0DXwsBtP8d_LAwfHztVw_090.jpg,dt0DXwsBtP8d_LAwfHztVw_090.jpg,0.21508789,benches along the street,90,9.19563677,45.50772753,4,1
Q01_CLIP_0074_WJ0T,Q01,"a safe, quiet place with lots of greenery where people can read outdoors",CLIP,74,132,NerrXLkh8RBMgQX41X6GWQ,D:\AAG\Milano_SVI\lang2img\0_Dataprocessing\views_4\NerrXLkh8RBMgQX41X6GWQ_090.jpg,NerrXLkh8RBMgQX41X6GWQ_090.jpg,0.22314453,street furniture benches,90,9.175443928,45.50190937,4,1
Q01_CLIP_0119_OHP6,Q01,"a safe, quiet place with lots of greenery where people can read outdoors",CLIP,119,133,SO0JzGyjnPKa3n20-o9rIQ,D:\AAG\Milano_SVI\lang2img\0_Dataprocessing\views_4\SO0JzGyjnPKa3n20-o9rIQ_090.jpg,SO0JzGyjnPKa3n20-o9rIQ_090.jpg,0.22009277,bench near the curb,90,9.160762411,45.51316323,4,1
Q01_CLIP_0073_PJA1,Q01,"a safe, quiet place with lots of greenery where people can read outdoors",CLIP,73,134,Hsbxbko5KGeekCYPjijMYA,D:\AAG\Milano_SVI\lang2img\0_Dataprocessing\views_4\Hsbxbko5KGeekCYPjijMYA_090.jpg,Hsbxbko5KGeekCYPjijMYA_090.jpg,0.22314453,bench near the curb,90,9.1485407,45.5077591,4,1
Q01_CLIP_0204_GZUI,Q01,"a safe, quiet place with lots of greenery where people can read outdoors",CLIP,204,135,F6lZMLPtymael1nTAtmySQ,D:\AAG\Milano_SVI\lang2img\0_Dataprocessing\views_4\F6lZMLPtymael1nTAtmySQ_090.jpg,F6lZMLPtymael1nTAtmySQ_090.jpg,0.2163086,benches on the sidewalk,90,9.207476862,45.48730633,4,1
Q01_CLIP_0191_1W1H,Q01,"a safe, quiet place with lots of greenery where people can read outdoors",CLIP,191,136,nv26xFoGnI9ZIMhalaaKrQ,D:\AAG\Milano_SVI\lang2img\0_Dataprocessing\views_4\nv26xFoGnI9ZIMhalaaKrQ_090.jpg,nv26xFoGnI9ZIMhalaaKrQ_090.jpg,0.2166748,street furniture benches,90,9.134614017,45.47609081,4,1
Q01_CLIP_0250_NP84,Q01,"a safe, quiet place with lots of greenery where people can read outdoors",CLIP,250,137,yg0jB2vHXyB9h7CoUH7WGA,D:\AAG\Milano_SVI\lang2img\0_Dataprocessing\views_4\yg0jB2vHXyB9h7CoUH7WGA_000.jpg,yg0jB2vHXyB9h7CoUH7WGA_000.jpg,0.2154541,street furniture benches,0,9.204901833,45.45388111,4,1
Q01_CLIP_0050_TB94,Q01,"a safe, quiet place with lots of greenery where people can read outdoors",CLIP,50,138,PGvawy-PtOtPGZ_6zP_IFA,D:\AAG\Milano_SVI\lang2img\0_Dataprocessing\views_4\PGvawy-PtOtPGZ_6zP_IFA_090.jpg,PGvawy-PtOtPGZ_6zP_IFA_090.jpg,0.22509766,street furniture benches,90,9.184255004,45.47688739,4,1
Q01_CLIP_0041_CWI6,Q01,"a safe, quiet place with lots of greenery where people can read outdoors",CLIP,41,139,qkHR9lfqiXH2VcuO-ymeJA,D:\AAG\Milano_SVI\lang2img\0_Dataprocessing\views_4\qkHR9lfqiXH2VcuO-ymeJA_090.jpg,qkHR9lfqiXH2VcuO-ymeJA_090.jpg,0.2265625,street furniture benches,90,9.1840116,45.4670642,4,1
Q01_CLIP_0287_NZ1U,Q01,"a safe, quiet place with lots of greenery where people can read outdoors",CLIP,287,140,axaCyfHQpRFVhK36qOSlcQ,D:\AAG\Milano_SVI\lang2img\0_Dataprocessing\views_4\axaCyfHQpRFVhK36qOSlcQ_270.jpg,axaCyfHQpRFVhK36qOSlcQ_270.jpg,0.21459961,bench near the curb,270,9.223956374,45.45818082,4,1
Q01_CLIP_0085_I3QK,Q01,"a safe, quiet place with lots of greenery where people can read outdoors",CLIP,85,141,cuz8-9ET2m3fNaXLTcE2ug,D:\AAG\Milano_SVI\lang2img\0_Dataprocessing\views_4\cuz8-9ET2m3fNaXLTcE2ug_090.jpg,cuz8-9ET2m3fNaXLTcE2ug_090.jpg,0.22277832,bench near the curb,90,9.1948984,45.4724414,4,1
Q01_CLIP_0045_DPPQ,Q01,"a safe, quiet place with lots of greenery where people can read outdoors",CLIP,45,142,Y_ILqKUPJ6AbjQi3Rj8Iww,D:\AAG\Milano_SVI\lang2img\0_Dataprocessing\views_4\Y_ILqKUPJ6AbjQi3Rj8Iww_270.jpg,Y_ILqKUPJ6AbjQi3Rj8Iww_270.jpg,0.22607422,benches along the street,270,9.2268124,45.4814889,4,1
Q01_CLIP_0054_QP89,Q01,"a safe, quiet place with lots of greenery where people can read outdoors",CLIP,54,143,ejkiOUXfJizz20C9ZUEI8w,D:\AAG\Milano_SVI\lang2img\0_Dataprocessing\views_4\ejkiOUXfJizz20C9ZUEI8w_270.jpg,ejkiOUXfJizz20C9ZUEI8w_270.jpg,0.22473145,bench near the curb,270,9.127252604,45.46231018,4,1
Q01_CLIP_0246_D5EQ,Q01,"a safe, quiet place with lots of greenery where people can read outdoors",CLIP,246,144,QdhvJZDMOAXES0l9S1tVFg,D:\AAG\Milano_SVI\lang2img\0_Dataprocessing\views_4\QdhvJZDMOAXES0l9S1tVFg_270.jpg,QdhvJZDMOAXES0l9S1tVFg_270.jpg,0.2154541,benches along the street,270,9.1607979,45.4583114,4,1
Q01_CLIP_0170_08HH,Q01,"a safe, quiet place with lots of greenery where people can read outdoors",CLIP,170,145,WhKwa3FgAmfNYbDrqJSw_A,D:\AAG\Milano_SVI\lang2img\0_Dataprocessing\views_4\WhKwa3FgAmfNYbDrqJSw_A_270.jpg,WhKwa3FgAmfNYbDrqJSw_A_270.jpg,0.21740723,bench near the curb,270,9.2585357,45.4540903,4,1
Q01_CLIP_0274_3DD0,Q01,"a safe, quiet place with lots of greenery where people can read outdoors",CLIP,274,146,KYI0Dnw-S5XC8Fqmy06GmQ,D:\AAG\Milano_SVI\lang2img\0_Dataprocessing\views_4\KYI0Dnw-S5XC8Fqmy06GmQ_270.jpg,KYI0Dnw-S5XC8Fqmy06GmQ_270.jpg,0.21484375,public bench,270,9.213872858,45.51675072,4,1
Q01_CLIP_0228_BVR6,Q01,"a safe, quiet place with lots of greenery where people can read outdoors",CLIP,228,147,tUDYx1MeXjruaq42RGPk3A,D:\AAG\Milano_SVI\lang2img\0_Dataprocessing\views_4\tUDYx1MeXjruaq42RGPk3A_090.jpg,tUDYx1MeXjruaq42RGPk3A_090.jpg,0.21582031,bench near the curb,90,9.157848033,45.51363107,4,1
Q01_CLIP_0230_WWYZ,Q01,"a safe, quiet place with lots of greenery where people can read outdoors",CLIP,230,148,ybodAZEVAsKDr5nYfjYaTg,D:\AAG\Milano_SVI\lang2img\0_Dataprocessing\views_4\ybodAZEVAsKDr5nYfjYaTg_090.jpg,ybodAZEVAsKDr5nYfjYaTg_090.jpg,0.21582031,benches on the sidewalk,90,9.198509896,45.47775894,4,1
Q01_CLIP_0260_ILGB,Q01,"a safe, quiet place with lots of greenery where people can read outdoors",CLIP,260,149,hIRmOwWo8EvFpMOQ9hRWOw,D:\AAG\Milano_SVI\lang2img\0_Dataprocessing\views_4\hIRmOwWo8EvFpMOQ9hRWOw_090.jpg,hIRmOwWo8EvFpMOQ9hRWOw_090.jpg,0.21508789,public bench,90,9.1585122,45.5131909,4,1
Q01_CLIP_0139_D14V,Q01,"a safe, quiet place with lots of greenery where people can read outdoors",CLIP,139,150,dqz4v23jR4nWpPMdYaVrUQ,D:\AAG\Milano_SVI\lang2img\0_Dataprocessing\views_4\dqz4v23jR4nWpPMdYaVrUQ_090.jpg,dqz4v23jR4nWpPMdYaVrUQ_090.jpg,0.21899414,benches on the sidewalk,90,9.122001259,45.50662268,4,1
Q01_CLIP_0206_3NX3,Q01,"a safe, quiet place with lots of greenery where people can read outdoors",CLIP,206,151,SqJiyIp82Ezj_AD3XpDPLg,D:\AAG\Milano_SVI\lang2img\0_Dataprocessing\views_4\SqJiyIp82Ezj_AD3XpDPLg_090.jpg,SqJiyIp82Ezj_AD3XpDPLg_090.jpg,0.2163086,bench near the curb,90,9.211139073,45.52511595,4,1
Q01_CLIP_0153_DHYL,Q01,"a safe, quiet place with lots of greenery where people can read outdoors",CLIP,153,152,h4MoWxomXBgQCEbSsW2LIg,D:\AAG\Milano_SVI\lang2img\0_Dataprocessing\views_4\h4MoWxomXBgQCEbSsW2LIg_270.jpg,h4MoWxomXBgQCEbSsW2LIg_270.jpg,0.21813965,public bench,270,9.2184596,45.4621503,4,1
Q01_CLIP_0144_08J3,Q01,"a safe, quiet place with lots of greenery where people can read outdoors",CLIP,144,153,pvDcJVQax1eBV26QQNLFtg,D:\AAG\Milano_SVI\lang2img\0_Dataprocessing\views_4\pvDcJVQax1eBV26QQNLFtg_270.jpg,pvDcJVQax1eBV26QQNLFtg_270.jpg,0.21862793,street benches,270,9.179900995,45.48171628,4,1
Q01_CLIP_0010_3W5U,Q01,"a safe, quiet place with lots of greenery where people can read outdoors",CLIP,10,154,7CoyIjngxIKzO4rjxkQ4cQ,D:\AAG\Milano_SVI\lang2img\0_Dataprocessing\views_4\7CoyIjngxIKzO4rjxkQ4cQ_090.jpg,7CoyIjngxIKzO4rjxkQ4cQ_090.jpg,0.23901367,street furniture benches,90,9.163627768,45.4426333,4,1
Q01_CLIP_0264_SQ8C,Q01,"a safe, quiet place with lots of greenery where people can read outdoors",CLIP,264,155,wDmDdGI07jZhZSeXxV4Olw,D:\AAG\Milano_SVI\lang2img\0_Dataprocessing\views_4\wDmDdGI07jZhZSeXxV4Olw_270.jpg,wDmDdGI07jZhZSeXxV4Olw_270.jpg,0.21508789,benches along the street,270,9.183181757,45.43948917,4,1
Q01_CLIP_0113_3T60,Q01,"a safe, quiet place with lots of greenery where people can read outdoors",CLIP,113,156,x0yyV64K815vf2pZFKnAPA,D:\AAG\Milano_SVI\lang2img\0_Dataprocessing\views_4\x0yyV64K815vf2pZFKnAPA_270.jpg,x0yyV64K815vf2pZFKnAPA_270.jpg,0.22058105,public bench,270,9.183062953,45.45259175,4,1
Q01_CLIP_0083_253J,Q01,"a safe, quiet place with lots of greenery where people can read outdoors",CLIP,83,157,j2M63hjPaddGsqAkUDNHIA,D:\AAG\Milano_SVI\lang2img\0_Dataprocessing\views_4\j2M63hjPaddGsqAkUDNHIA_270.jpg,j2M63hjPaddGsqAkUDNHIA_270.jpg,0.22277832,bench near the curb,270,9.172855636,45.52939619,4,1
Q01_CLIP_0271_QIMQ,Q01,"a safe, quiet place with lots of greenery where people can read outdoors",CLIP,271,158,pHObFplxufAhA4mYo0P0SA,D:\AAG\Milano_SVI\lang2img\0_Dataprocessing\views_4\pHObFplxufAhA4mYo0P0SA_090.jpg,pHObFplxufAhA4mYo0P0SA_090.jpg,0.21484375,benches along the street,90,9.1515121,45.4783403,4,1
Q01_CLIP_0216_5PY6,Q01,"a safe, quiet place with lots of greenery where people can read outdoors",CLIP,216,159,l9b_YVlAxPbpumtYSsDDCw,D:\AAG\Milano_SVI\lang2img\0_Dataprocessing\views_4\l9b_YVlAxPbpumtYSsDDCw_090.jpg,l9b_YVlAxPbpumtYSsDDCw_090.jpg,0.21606445,bench near the curb,90,9.1812776,45.4828806,4,1
Q01_CLIP_0164_7R3O,Q01,"a safe, quiet place with lots of greenery where people can read outdoors",CLIP,164,160,H1lFRyHJxcSoMphupxE2bA,D:\AAG\Milano_SVI\lang2img\0_Dataprocessing\views_4\H1lFRyHJxcSoMphupxE2bA_090.jpg,H1lFRyHJxcSoMphupxE2bA_090.jpg,0.21777344,benches along the street,90,9.18709962,45.45233962,4,1
Q01_CLIP_0173_IZZQ,Q01,"a safe, quiet place with lots of greenery where people can read outdoors",CLIP,173,161,blszsqJ_vUsAODbgBGIIOA,D:\AAG\Milano_SVI\lang2img\0_Dataprocessing\views_4\blszsqJ_vUsAODbgBGIIOA_270.jpg,blszsqJ_vUsAODbgBGIIOA_270.jpg,0.21728516,public bench,270,9.13654723,45.45760039,4,1
Q01_CLIP_0098_7Y6W,Q01,"a safe, quiet place with lots of greenery where people can read outdoors",CLIP,98,162,21xFfxOz3pHuckONkFOnxg,D:\AAG\Milano_SVI\lang2img\0_Dataprocessing\views_4\21xFfxOz3pHuckONkFOnxg_090.jpg,21xFfxOz3pHuckONkFOnxg_090.jpg,0.22180176,street furniture benches,90,9.132229879,45.49687709,4,1
Q01_CLIP_0193_E9VI,Q01,"a safe, quiet place with lots of greenery where people can read outdoors",CLIP,193,163,FFXv41IGtl45BDSbR8CZjg,D:\AAG\Milano_SVI\lang2img\0_Dataprocessing\views_4\FFXv41IGtl45BDSbR8CZjg_090.jpg,FFXv41IGtl45BDSbR8CZjg_090.jpg,0.2166748,a bench,90,9.07907397,45.47040212,4,1
Q01_CLIP_0225_RIUU,Q01,"a safe, quiet place with lots of greenery where people can read outdoors",CLIP,225,164,T3RDNmZVO8-OqLT4D3Xvjw,D:\AAG\Milano_SVI\lang2img\0_Dataprocessing\views_4\T3RDNmZVO8-OqLT4D3Xvjw_090.jpg,T3RDNmZVO8-OqLT4D3Xvjw_090.jpg,0.21582031,benches along the street,90,9.216735284,45.43674335,4,1
Q01_CLIP_0166_UK9E,Q01,"a safe, quiet place with lots of greenery where people can read outdoors",CLIP,166,165,uHQkxvX4xEeBSVcFHTQqWQ,D:\AAG\Milano_SVI\lang2img\0_Dataprocessing\views_4\uHQkxvX4xEeBSVcFHTQqWQ_090.jpg,uHQkxvX4xEeBSVcFHTQqWQ_090.jpg,0.2175293,public bench,90,9.251488372,45.48541716,4,1
Q01_CLIP_0186_Y4LY,Q01,"a safe, quiet place with lots of greenery where people can read outdoors",CLIP,186,166,_rSLIomteBRuHmamfCF-dQ,D:\AAG\Milano_SVI\lang2img\0_Dataprocessing\views_4\_rSLIomteBRuHmamfCF-dQ_270.jpg,_rSLIomteBRuHmamfCF-dQ_270.jpg,0.21679688,public bench,270,9.217030955,45.44358331,4,1
Q01_CLIP_0053_N9J2,Q01,"a safe, quiet place with lots of greenery where people can read outdoors",CLIP,53,167,lMa6f3dWFtnp_Qb6eoGj8w,D:\AAG\Milano_SVI\lang2img\0_Dataprocessing\views_4\lMa6f3dWFtnp_Qb6eoGj8w_270.jpg,lMa6f3dWFtnp_Qb6eoGj8w_270.jpg,0.22473145,public seating on the sidewalk,270,9.170879477,45.47644337,4,1
Q01_CLIP_0259_XAA2,Q01,"a safe, quiet place with lots of greenery where people can read outdoors",CLIP,259,168,m5JnVsEFL_E504XU9bK2gA,D:\AAG\Milano_SVI\lang2img\0_Dataprocessing\views_4\m5JnVsEFL_E504XU9bK2gA_090.jpg,m5JnVsEFL_E504XU9bK2gA_090.jpg,0.21508789,a bench on the sidewalk,90,9.1381627,45.4716274,4,1
Q01_CLIP_0081_5935,Q01,"a safe, quiet place with lots of greenery where people can read outdoors",CLIP,81,169,sFt5-Zqe0yKTgD75KXsXEQ,D:\AAG\Milano_SVI\lang2img\0_Dataprocessing\views_4\sFt5-Zqe0yKTgD75KXsXEQ_090.jpg,sFt5-Zqe0yKTgD75KXsXEQ_090.jpg,0.22277832,bench near the curb,90,9.18083172,45.52671021,4,1
Q01_CLIP_0167_1V2I,Q01,"a safe, quiet place with lots of greenery where people can read outdoors",CLIP,167,170,77p6cRUGt8yxD_U3Y8_MOg,D:\AAG\Milano_SVI\lang2img\0_Dataprocessing\views_4\77p6cRUGt8yxD_U3Y8_MOg_000.jpg,77p6cRUGt8yxD_U3Y8_MOg_000.jpg,0.2175293,street benches,0,9.1744567,45.4518041,4,1
Q01_CLIP_0147_5IQV,Q01,"a safe, quiet place with lots of greenery where people can read outdoors",CLIP,147,171,g3sQTwH18LjnZoDRBcFWnQ,D:\AAG\Milano_SVI\lang2img\0_Dataprocessing\views_4\g3sQTwH18LjnZoDRBcFWnQ_270.jpg,g3sQTwH18LjnZoDRBcFWnQ_270.jpg,0.21850586,a bench on the sidewalk,270,9.1871207,45.4677414,4,1
Q01_CLIP_0244_36KO,Q01,"a safe, quiet place with lots of greenery where people can read outdoors",CLIP,244,172,0H9YRPtEkuX4wsKjsu_5gA,D:\AAG\Milano_SVI\lang2img\0_Dataprocessing\views_4\0H9YRPtEkuX4wsKjsu_5gA_270.jpg,0H9YRPtEkuX4wsKjsu_5gA_270.jpg,0.2154541,benches along the street,270,9.147971637,45.45035959,4,1
Q01_CLIP_0162_5R5U,Q01,"a safe, quiet place with lots of greenery where people can read outdoors",CLIP,162,173,Chb__2RLoWNWxgOFr8XzwQ,D:\AAG\Milano_SVI\lang2img\0_Dataprocessing\views_4\Chb__2RLoWNWxgOFr8XzwQ_090.jpg,Chb__2RLoWNWxgOFr8XzwQ_090.jpg,0.21777344,bench near the curb,90,9.205902924,45.41483312,4,1
Q01_CLIP_0034_58DR,Q01,"a safe, quiet place with lots of greenery where people can read outdoors",CLIP,34,174,6mzWffcCJjr_BjUED-F_kw,D:\AAG\Milano_SVI\lang2img\0_Dataprocessing\views_4\6mzWffcCJjr_BjUED-F_kw_000.jpg,6mzWffcCJjr_BjUED-F_kw_000.jpg,0.22827148,street furniture benches,0,9.246227854,45.51033633,4,1
Q01_CLIP_0141_PNSM,Q01,"a safe, quiet place with lots of greenery where people can read outdoors",CLIP,141,175,LEcoAVPUlHJqzmiYcQ5DUg,D:\AAG\Milano_SVI\lang2img\0_Dataprocessing\views_4\LEcoAVPUlHJqzmiYcQ5DUg_000.jpg,LEcoAVPUlHJqzmiYcQ5DUg_000.jpg,0.21887207,street benches,0,9.205095169,45.47505793,4,2
Q01_CLIP_0063_YKL1,Q01,"a safe, quiet place with lots of greenery where people can read outdoors",CLIP,63,176,c-nQ6WRRRu40EFAFVdtIYQ,D:\AAG\Milano_SVI\lang2img\0_Dataprocessing\views_4\c-nQ6WRRRu40EFAFVdtIYQ_270.jpg,c-nQ6WRRRu40EFAFVdtIYQ_270.jpg,0.22399902,benches along the street,270,9.152466655,45.48969236,4,1
Q01_CLIP_0277_15Z8,Q01,"a safe, quiet place with lots of greenery where people can read outdoors",CLIP,277,177,tnguRTCRwSEG6WM861Lx6g,D:\AAG\Milano_SVI\lang2img\0_Dataprocessing\views_4\tnguRTCRwSEG6WM861Lx6g_270.jpg,tnguRTCRwSEG6WM861Lx6g_270.jpg,0.21472168,bench near the curb,270,9.100057473,45.48042334,4,1
Q01_CLIP_0086_2IAG,Q01,"a safe, quiet place with lots of greenery where people can read outdoors",CLIP,86,178,vhg4bftrRdtAX0CDPdT2PA,D:\AAG\Milano_SVI\lang2img\0_Dataprocessing\views_4\vhg4bftrRdtAX0CDPdT2PA_090.jpg,vhg4bftrRdtAX0CDPdT2PA_090.jpg,0.22277832,street furniture benches,90,9.212732633,45.49751003,4,1
Q01_CLIP_0080_OWF7,Q01,"a safe, quiet place with lots of greenery where people can read outdoors",CLIP,80,179,Sa-jRtB-BKu-sNwI9_Imvw,D:\AAG\Milano_SVI\lang2img\0_Dataprocessing\views_4\Sa-jRtB-BKu-sNwI9_Imvw_090.jpg,Sa-jRtB-BKu-sNwI9_Imvw_090.jpg,0.22290039,bench near the curb,90,9.0855003,45.4773238,4,1
Q01_CLIP_0078_246H,Q01,"a safe, quiet place with lots of greenery where people can read outdoors",CLIP,78,180,ChOEFmoNYG22x57Zyin5Bw,D:\AAG\Milano_SVI\lang2img\0_Dataprocessing\views_4\ChOEFmoNYG22x57Zyin5Bw_090.jpg,ChOEFmoNYG22x57Zyin5Bw_090.jpg,0.22290039,street benches,90,9.1722884,45.4761927,4,2
Q01_CLIP_0249_RO8B,Q01,"a safe, quiet place with lots of greenery where people can read outdoors",CLIP,249,181,1lWyIauOjjftmHR5BPrmaA,D:\AAG\Milano_SVI\lang2img\0_Dataprocessing\views_4\1lWyIauOjjftmHR5BPrmaA_000.jpg,1lWyIauOjjftmHR5BPrmaA_000.jpg,0.2154541,street benches,0,9.198735711,45.46931323,4,1
Q01_CLIP_0226_9K9X,Q01,"a safe, quiet place with lots of greenery where people can read outdoors",CLIP,226,182,M0Sm-Yku_tteKiwXjZ8RAQ,D:\AAG\Milano_SVI\lang2img\0_Dataprocessing\views_4\M0Sm-Yku_tteKiwXjZ8RAQ_270.jpg,M0Sm-Yku_tteKiwXjZ8RAQ_270.jpg,0.21582031,benches along the street,270,9.202383906,45.45342406,4,1
Q01_CLIP_0033_53LC,Q01,"a safe, quiet place with lots of greenery where people can read outdoors",CLIP,33,183,T3q8pX1I3Q4iai1SFs3tqw,D:\AAG\Milano_SVI\lang2img\0_Dataprocessing\views_4\T3q8pX1I3Q4iai1SFs3tqw_090.jpg,T3q8pX1I3Q4iai1SFs3tqw_090.jpg,0.22839355,bench near the curb,90,9.118827295,45.51486443,4,1
Q01_CLIP_0061_PVS7,Q01,"a safe, quiet place with lots of greenery where people can read outdoors",CLIP,61,184,DsOXYHBEJQphCN246cjm9Q,D:\AAG\Milano_SVI\lang2img\0_Dataprocessing\views_4\DsOXYHBEJQphCN246cjm9Q_090.jpg,DsOXYHBEJQphCN246cjm9Q_090.jpg,0.2241211,bench near the curb,90,9.213695144,45.52963455,4,1
Q01_CLIP_0182_89YJ,Q01,"a safe, quiet place with lots of greenery where people can read outdoors",CLIP,182,185,priptV4nUqEcb8dteUiAtA,D:\AAG\Milano_SVI\lang2img\0_Dataprocessing\views_4\priptV4nUqEcb8dteUiAtA_270.jpg,priptV4nUqEcb8dteUiAtA_270.jpg,0.21679688,benches on the sidewalk,270,9.197969446,45.4564213,4,1
Q01_CLIP_0133_AFEY,Q01,"a safe, quiet place with lots of greenery where people can read outdoors",CLIP,133,186,mIKPgOpQw24LmgkSX1_ePw,D:\AAG\Milano_SVI\lang2img\0_Dataprocessing\views_4\mIKPgOpQw24LmgkSX1_ePw_270.jpg,mIKPgOpQw24LmgkSX1_ePw_270.jpg,0.21948242,bench near the curb,270,9.149518495,45.4957369,4,1
Q01_CLIP_0058_F8CG,Q01,"a safe, quiet place with lots of greenery where people can read outdoors",CLIP,58,187,dS5LHh5eF4Oj5JOFirN7kw,D:\AAG\Milano_SVI\lang2img\0_Dataprocessing\views_4\dS5LHh5eF4Oj5JOFirN7kw_270.jpg,dS5LHh5eF4Oj5JOFirN7kw_270.jpg,0.22436523,benches along the street,270,9.2211472,45.4751541,4,1
Q01_CLIP_0187_K83T,Q01,"a safe, quiet place with lots of greenery where people can read outdoors",CLIP,187,188,FmsBQvjvxHKk3W1rf__GNg,D:\AAG\Milano_SVI\lang2img\0_Dataprocessing\views_4\FmsBQvjvxHKk3W1rf__GNg_270.jpg,FmsBQvjvxHKk3W1rf__GNg_270.jpg,0.21679688,bench near the curb,270,9.252697717,45.46357019,4,1
Q01_CLIP_0105_IR4C,Q01,"a safe, quiet place with lots of greenery where people can read outdoors",CLIP,105,189,6uwyBB2ozFRB3QLqDmPSpw,D:\AAG\Milano_SVI\lang2img\0_Dataprocessing\views_4\6uwyBB2ozFRB3QLqDmPSpw_270.jpg,6uwyBB2ozFRB3QLqDmPSpw_270.jpg,0.22155762,street furniture benches,270,9.2250385,45.4807106,4,1
Q01_CLIP_0238_8409,Q01,"a safe, quiet place with lots of greenery where people can read outdoors",CLIP,238,190,_SMAnfh0glOtmFdwyz92yA,D:\AAG\Milano_SVI\lang2img\0_Dataprocessing\views_4\_SMAnfh0glOtmFdwyz92yA_180.jpg,_SMAnfh0glOtmFdwyz92yA_180.jpg,0.21557617,benches along the street,180,9.2252043,45.4809319,4,1
Q01_CLIP_0200_O7S3,Q01,"a safe, quiet place with lots of greenery where people can read outdoors",CLIP,200,191,lNtRHqcalC7Wtb9c9xP_xA,D:\AAG\Milano_SVI\lang2img\0_Dataprocessing\views_4\lNtRHqcalC7Wtb9c9xP_xA_090.jpg,lNtRHqcalC7Wtb9c9xP_xA_090.jpg,0.21643066,bench near the curb,90,9.0746124,45.4972836,4,1
Q01_CLIP_0255_EUC1,Q01,"a safe, quiet place with lots of greenery where people can read outdoors",CLIP,255,192,_4nxuBpmJS4TaCF3xeM3yg,D:\AAG\Milano_SVI\lang2img\0_Dataprocessing\views_4\_4nxuBpmJS4TaCF3xeM3yg_180.jpg,_4nxuBpmJS4TaCF3xeM3yg_180.jpg,0.21533203,bench near the curb,180,9.1436586,45.4879165,4,1
Q01_CLIP_0165_CWBF,Q01,"a safe, quiet place with lots of greenery where people can read outdoors",CLIP,165,193,mmpmxfsw_HBZ4CjGeWY2xg,D:\AAG\Milano_SVI\lang2img\0_Dataprocessing\views_4\mmpmxfsw_HBZ4CjGeWY2xg_180.jpg,mmpmxfsw_HBZ4CjGeWY2xg_180.jpg,0.21765137,street benches,180,9.1820002,45.4675795,4,1
Q01_CLIP_0190_TOGN,Q01,"a safe, quiet place with lots of greenery where people can read outdoors",CLIP,190,194,QhtqPng_yuLcuj5SU5SR5A,D:\AAG\Milano_SVI\lang2img\0_Dataprocessing\views_4\QhtqPng_yuLcuj5SU5SR5A_270.jpg,QhtqPng_yuLcuj5SU5SR5A_270.jpg,0.2166748,benches on the sidewalk,270,9.176540529,45.48009407,4,1
Q01_CLIP_0175_X7PT,Q01,"a safe, quiet place with lots of greenery where people can read outdoors",CLIP,175,195,917S5rDZlBPoxfi1etiqBA,D:\AAG\Milano_SVI\lang2img\0_Dataprocessing\views_4\917S5rDZlBPoxfi1etiqBA_090.jpg,917S5rDZlBPoxfi1etiqBA_090.jpg,0.21716309,bench near the curb,90,9.1074481,45.5117778,4,1
Q01_CLIP_0123_TVHH,Q01,"a safe, quiet place with lots of greenery where people can read outdoors",CLIP,123,196,zzp_MoPfqkJShuAo0AYc6w,D:\AAG\Milano_SVI\lang2img\0_Dataprocessing\views_4\zzp_MoPfqkJShuAo0AYc6w_090.jpg,zzp_MoPfqkJShuAo0AYc6w_090.jpg,0.2199707,bench near the curb,90,9.125539656,45.43672427,4,1
Q01_CLIP_0014_J7XV,Q01,"a safe, quiet place with lots of greenery where people can read outdoors",CLIP,14,197,96noJkCxyDlXf_N-iWKIkQ,D:\AAG\Milano_SVI\lang2img\0_Dataprocessing\views_4\96noJkCxyDlXf_N-iWKIkQ_090.jpg,96noJkCxyDlXf_N-iWKIkQ_090.jpg,0.23779297,public bench,90,9.125573216,45.51843559,4,1
Q01_CLIP_0114_RJIW,Q01,"a safe, quiet place with lots of greenery where people can read outdoors",CLIP,114,198,vjq4QseWUBO9atGL1Y4L5Q,D:\AAG\Milano_SVI\lang2img\0_Dataprocessing\views_4\vjq4QseWUBO9atGL1Y4L5Q_090.jpg,vjq4QseWUBO9atGL1Y4L5Q_090.jpg,0.22058105,benches on the sidewalk,90,9.169653,45.4777971,4,1
Q01_CLIP_0101_PHR6,Q01,"a safe, quiet place with lots of greenery where people can read outdoors",CLIP,101,199,22EktM-OxATWrYV7Dv-YiQ,D:\AAG\Milano_SVI\lang2img\0_Dataprocessing\views_4\22EktM-OxATWrYV7Dv-YiQ_090.jpg,22EktM-OxATWrYV7Dv-YiQ_090.jpg,0.22167969,bench near the curb,90,9.127810874,45.51948791,4,1
Q01_CLIP_0121_NAM1,Q01,"a safe, quiet place with lots of greenery where people can read outdoors",CLIP,121,200,phyOWLaHEASRVJG39pKIsQ,D:\AAG\Milano_SVI\lang2img\0_Dataprocessing\views_4\phyOWLaHEASRVJG39pKIsQ_270.jpg,phyOWLaHEASRVJG39pKIsQ_270.jpg,0.2199707,bench near the curb,270,9.130040778,45.49226132,4,1
Q01_CLIP_0148_NB4G,Q01,"a safe, quiet place with lots of greenery where people can read outdoors",CLIP,148,201,nJCOVvtRcMCAJsLgr27rVg,D:\AAG\Milano_SVI\lang2img\0_Dataprocessing\views_4\nJCOVvtRcMCAJsLgr27rVg_270.jpg,nJCOVvtRcMCAJsLgr27rVg_270.jpg,0.21838379,street benches,270,9.2171259,45.4685331,4,1
Q01_CLIP_0031_1T2T,Q01,"a safe, quiet place with lots of greenery where people can read outdoors",CLIP,31,202,ypT3bIeelabJ7OKJQ34Vew,D:\AAG\Milano_SVI\lang2img\0_Dataprocessing\views_4\ypT3bIeelabJ7OKJQ34Vew_090.jpg,ypT3bIeelabJ7OKJQ34Vew_090.jpg,0.22851562,bench near the curb,90,9.238762646,45.48444991,4,1
Q01_CLIP_0268_L9TQ,Q01,"a safe, quiet place with lots of greenery where people can read outdoors",CLIP,268,203,Im8jPgXyKwNwm-HAZbwfpg,D:\AAG\Milano_SVI\lang2img\0_Dataprocessing\views_4\Im8jPgXyKwNwm-HAZbwfpg_270.jpg,Im8jPgXyKwNwm-HAZbwfpg_270.jpg,0.21484375,benches on the sidewalk,270,9.2157669,45.4521854,4,1
Q01_CLIP_0128_BNHL,Q01,"a safe, quiet place with lots of greenery where people can read outdoors",CLIP,128,204,yzPhXtgxCqg7UKwf-MhkRg,D:\AAG\Milano_SVI\lang2img\0_Dataprocessing\views_4\yzPhXtgxCqg7UKwf-MhkRg_090.jpg,yzPhXtgxCqg7UKwf-MhkRg_090.jpg,0.21972656,bench near the curb,90,9.135978069,45.52052894,4,1
Q01_CLIP_0071_ZHWJ,Q01,"a safe, quiet place with lots of greenery where people can read outdoors",CLIP,71,205,p_gMgwfaCdCI4MJlfbA9cg,D:\AAG\Milano_SVI\lang2img\0_Dataprocessing\views_4\p_gMgwfaCdCI4MJlfbA9cg_000.jpg,p_gMgwfaCdCI4MJlfbA9cg_000.jpg,0.22338867,street furniture benches,0,9.1722558,45.4809518,4,1
Q01_CLIP_0217_B2KN,Q01,"a safe, quiet place with lots of greenery where people can read outdoors",CLIP,217,206,N_u_PzYT4D1qpqCDyt_CIg,D:\AAG\Milano_SVI\lang2img\0_Dataprocessing\views_4\N_u_PzYT4D1qpqCDyt_CIg_270.jpg,N_u_PzYT4D1qpqCDyt_CIg_270.jpg,0.21606445,public bench,270,9.1299989,45.4999755,4,1
Q01_CLIP_0243_U6HC,Q01,"a safe, quiet place with lots of greenery where people can read outdoors",CLIP,243,207,frk_duL9rzCqChSPYeXN3Q,D:\AAG\Milano_SVI\lang2img\0_Dataprocessing\views_4\frk_duL9rzCqChSPYeXN3Q_090.jpg,frk_duL9rzCqChSPYeXN3Q_090.jpg,0.21557617,bench near the curb,90,9.145190059,45.48541426,4,1
Q01_CLIP_0027_JXEP,Q01,"a safe, quiet place with lots of greenery where people can read outdoors",CLIP,27,208,P8S_GAXA33StYn5ahtvbMw,D:\AAG\Milano_SVI\lang2img\0_Dataprocessing\views_4\P8S_GAXA33StYn5ahtvbMw_090.jpg,P8S_GAXA33StYn5ahtvbMw_090.jpg,0.23022461,street benches,90,9.167811377,45.46211527,4,1
Q01_CLIP_0023_DBDW,Q01,"a safe, quiet place with lots of greenery where people can read outdoors",CLIP,23,209,32fHOKhaOoqMnA37ubsHdQ,D:\AAG\Milano_SVI\lang2img\0_Dataprocessing\views_4\32fHOKhaOoqMnA37ubsHdQ_090.jpg,32fHOKhaOoqMnA37ubsHdQ_090.jpg,0.23242188,street furniture benches,90,9.250915516,45.48438833,4,1
Q01_CLIP_0207_9RBS,Q01,"a safe, quiet place with lots of greenery where people can read outdoors",CLIP,207,210,CPx5L9QQFSblbbDOXW93yQ,D:\AAG\Milano_SVI\lang2img\0_Dataprocessing\views_4\CPx5L9QQFSblbbDOXW93yQ_180.jpg,CPx5L9QQFSblbbDOXW93yQ_180.jpg,0.2163086,bench near the curb,180,9.13788803,45.4857419,4,1
Q01_CLIP_0118_ZCOT,Q01,"a safe, quiet place with lots of greenery where people can read outdoors",CLIP,118,211,BeyQK8kxexdLXaqBl_Uc8g,D:\AAG\Milano_SVI\lang2img\0_Dataprocessing\views_4\BeyQK8kxexdLXaqBl_Uc8g_270.jpg,BeyQK8kxexdLXaqBl_Uc8g_270.jpg,0.22033691,bench near the curb,270,9.179474349,45.43104653,4,1
Q01_CLIP_0056_8UT0,Q01,"a safe, quiet place with lots of greenery where people can read outdoors",CLIP,56,212,4X2LWYVFSFMi24wOzUSgcg,D:\AAG\Milano_SVI\lang2img\0_Dataprocessing\views_4\4X2LWYVFSFMi24wOzUSgcg_090.jpg,4X2LWYVFSFMi24wOzUSgcg_090.jpg,0.22460938,bench near the curb,90,9.2553151,45.4360414,4,1
Q01_CLIP_0282_XA73,Q01,"a safe, quiet place with lots of greenery where people can read outdoors",CLIP,282,213,XGvnJRkrbcRciFSymB4v5w,D:\AAG\Milano_SVI\lang2img\0_Dataprocessing\views_4\XGvnJRkrbcRciFSymB4v5w_090.jpg,XGvnJRkrbcRciFSymB4v5w_090.jpg,0.21459961,bench near the curb,90,9.252552588,45.43233749,4,1
Q01_CLIP_0245_F8KR,Q01,"a safe, quiet place with lots of greenery where people can read outdoors",CLIP,245,214,xTrCGHc88u7D9eZPO3S7YQ,D:\AAG\Milano_SVI\lang2img\0_Dataprocessing\views_4\xTrCGHc88u7D9eZPO3S7YQ_000.jpg,xTrCGHc88u7D9eZPO3S7YQ_000.jpg,0.2154541,bench near the curb,0,9.2395422,45.4351078,4,1
Q01_CLIP_0005_HV3A,Q01,"a safe, quiet place with lots of greenery where people can read outdoors",CLIP,5,215,elqG5pwU4uxHCpETZgrbiQ,D:\AAG\Milano_SVI\lang2img\0_Dataprocessing\views_4\elqG5pwU4uxHCpETZgrbiQ_270.jpg,elqG5pwU4uxHCpETZgrbiQ_270.jpg,0.24255371,public bench,270,9.151721328,45.45156953,4,1
Q01_CLIP_0030_KXVF,Q01,"a safe, quiet place with lots of greenery where people can read outdoors",CLIP,30,216,o9--yIpcRTXfncE-bQmZ6A,D:\AAG\Milano_SVI\lang2img\0_Dataprocessing\views_4\o9--yIpcRTXfncE-bQmZ6A_090.jpg,o9--yIpcRTXfncE-bQmZ6A_090.jpg,0.2286377,street benches,90,9.1987291,45.466129,4,1
Q01_CLIP_0115_1SWJ,Q01,"a safe, quiet place with lots of greenery where people can read outdoors",CLIP,115,217,pLNiomoR-KYwUzDXeP6Zew,D:\AAG\Milano_SVI\lang2img\0_Dataprocessing\views_4\pLNiomoR-KYwUzDXeP6Zew_270.jpg,pLNiomoR-KYwUzDXeP6Zew_270.jpg,0.22045898,benches along the street,270,9.229860454,45.48969009,4,1
Q01_CLIP_0285_OFWB,Q01,"a safe, quiet place with lots of greenery where people can read outdoors",CLIP,285,218,hNCdRlduvAwgQc7L3v3TfQ,D:\AAG\Milano_SVI\lang2img\0_Dataprocessing\views_4\hNCdRlduvAwgQc7L3v3TfQ_090.jpg,hNCdRlduvAwgQc7L3v3TfQ_090.jpg,0.21459961,street benches,90,9.198073362,45.51222163,4,1
Q01_CLIP_0072_R64D,Q01,"a safe, quiet place with lots of greenery where people can read outdoors",CLIP,72,219,p3_lJPa7ETBz0SyDJNC9Ag,D:\AAG\Milano_SVI\lang2img\0_Dataprocessing\views_4\p3_lJPa7ETBz0SyDJNC9Ag_090.jpg,p3_lJPa7ETBz0SyDJNC9Ag_090.jpg,0.2232666,bench near the curb,90,9.076263659,45.45243065,4,1
Q01_CLIP_0117_TEIY,Q01,"a safe, quiet place with lots of greenery where people can read outdoors",CLIP,117,220,N_1pwQB_hJ38ungk_UiEOw,D:\AAG\Milano_SVI\lang2img\0_Dataprocessing\views_4\N_1pwQB_hJ38ungk_UiEOw_090.jpg,N_1pwQB_hJ38ungk_UiEOw_090.jpg,0.22045898,bench near the curb,90,9.076452172,45.45304678,4,1
Q01_CLIP_0276_LEMX,Q01,"a safe, quiet place with lots of greenery where people can read outdoors",CLIP,276,221,xX1x2vtaQptrt62uonViqQ,D:\AAG\Milano_SVI\lang2img\0_Dataprocessing\views_4\xX1x2vtaQptrt62uonViqQ_090.jpg,xX1x2vtaQptrt62uonViqQ_090.jpg,0.21472168,bench near the curb,90,9.1481841,45.5072879,4,1
Q01_CLIP_0192_T7PZ,Q01,"a safe, quiet place with lots of greenery where people can read outdoors",CLIP,192,222,Pcgd5vls_XUehpl2PvTjMQ,D:\AAG\Milano_SVI\lang2img\0_Dataprocessing\views_4\Pcgd5vls_XUehpl2PvTjMQ_180.jpg,Pcgd5vls_XUehpl2PvTjMQ_180.jpg,0.2166748,benches on the sidewalk,180,9.183692971,45.47297193,4,1
Q01_CLIP_0082_A0L7,Q01,"a safe, quiet place with lots of greenery where people can read outdoors",CLIP,82,223,fMuMQBRcLf6Bb5Td1dx2Aw,D:\AAG\Milano_SVI\lang2img\0_Dataprocessing\views_4\fMuMQBRcLf6Bb5Td1dx2Aw_090.jpg,fMuMQBRcLf6Bb5Td1dx2Aw_090.jpg,0.22277832,street furniture benches,90,9.191747,45.4758723,4,1
Q01_CLIP_0022_OH9S,Q01,"a safe, quiet place with lots of greenery where people can read outdoors",CLIP,22,224,W0EJtIqNMaie2CyMzynybg,D:\AAG\Milano_SVI\lang2img\0_Dataprocessing\views_4\W0EJtIqNMaie2CyMzynybg_270.jpg,W0EJtIqNMaie2CyMzynybg_270.jpg,0.23266602,street furniture benches,270,9.1700062,45.5172617,4,1
Q01_CLIP_0130_JCAT,Q01,"a safe, quiet place with lots of greenery where people can read outdoors",CLIP,130,225,IPVEjEyaSV10Vv55qznr5A,D:\AAG\Milano_SVI\lang2img\0_Dataprocessing\views_4\IPVEjEyaSV10Vv55qznr5A_270.jpg,IPVEjEyaSV10Vv55qznr5A_270.jpg,0.21960449,public bench,270,9.17638426,45.44554914,4,1
Q01_CLIP_0036_RTJ5,Q01,"a safe, quiet place with lots of greenery where people can read outdoors",CLIP,36,226,V649ozY0wgChPC6I7OATmA,D:\AAG\Milano_SVI\lang2img\0_Dataprocessing\views_4\V649ozY0wgChPC6I7OATmA_270.jpg,V649ozY0wgChPC6I7OATmA_270.jpg,0.22790527,public bench,270,9.1793269,45.4672214,4,1
Q01_CLIP_0286_0HPM,Q01,"a safe, quiet place with lots of greenery where people can read outdoors",CLIP,286,227,sSLkONd3vuw63hji7T1Q0Q,D:\AAG\Milano_SVI\lang2img\0_Dataprocessing\views_4\sSLkONd3vuw63hji7T1Q0Q_090.jpg,sSLkONd3vuw63hji7T1Q0Q_090.jpg,0.21459961,public bench,90,9.199967323,45.51947001,4,1
Q01_CLIP_0137_LY8O,Q01,"a safe, quiet place with lots of greenery where people can read outdoors",CLIP,137,228,2VadfzTpgSOfVjhsmOZm5A,D:\AAG\Milano_SVI\lang2img\0_Dataprocessing\views_4\2VadfzTpgSOfVjhsmOZm5A_270.jpg,2VadfzTpgSOfVjhsmOZm5A_270.jpg,0.21923828,bench near the curb,270,9.1710804,45.4704131,4,1
Q01_CLIP_0075_PAC5,Q01,"a safe, quiet place with lots of greenery where people can read outdoors",CLIP,75,229,VpSAXTyT-cuRNTu99mekbw,D:\AAG\Milano_SVI\lang2img\0_Dataprocessing\views_4\VpSAXTyT-cuRNTu99mekbw_270.jpg,VpSAXTyT-cuRNTu99mekbw_270.jpg,0.22314453,street benches,270,9.2111379,45.4767133,4,1
Q01_CLIP_0025_9T84,Q01,"a safe, quiet place with lots of greenery where people can read outdoors",CLIP,25,230,DmOINK5gyWwuA5-AsGNbqA,D:\AAG\Milano_SVI\lang2img\0_Dataprocessing\views_4\DmOINK5gyWwuA5-AsGNbqA_090.jpg,DmOINK5gyWwuA5-AsGNbqA_090.jpg,0.23144531,benches on the sidewalk,90,9.206803321,45.47728026,4,1
Q01_CLIP_0161_9TZE,Q01,"a safe, quiet place with lots of greenery where people can read outdoors",CLIP,161,231,e0a9VuHziknYnyr8G-fvFg,D:\AAG\Milano_SVI\lang2img\0_Dataprocessing\views_4\e0a9VuHziknYnyr8G-fvFg_270.jpg,e0a9VuHziknYnyr8G-fvFg_270.jpg,0.21777344,public seating on the sidewalk,270,9.2150964,45.4756995,4,1
Q01_CLIP_0126_WAOU,Q01,"a safe, quiet place with lots of greenery where people can read outdoors",CLIP,126,232,rjSsn8CX6B8W6TD4oNY-Fg,D:\AAG\Milano_SVI\lang2img\0_Dataprocessing\views_4\rjSsn8CX6B8W6TD4oNY-Fg_090.jpg,rjSsn8CX6B8W6TD4oNY-Fg_090.jpg,0.21984863,benches on the sidewalk,90,9.125370109,45.49332525,4,1
Q01_CLIP_0195_96QE,Q01,"a safe, quiet place with lots of greenery where people can read outdoors",CLIP,195,233,64N_ddElW104iE6nYiv0hg,D:\AAG\Milano_SVI\lang2img\0_Dataprocessing\views_4\64N_ddElW104iE6nYiv0hg_270.jpg,64N_ddElW104iE6nYiv0hg_270.jpg,0.21655273,street benches,270,9.194403032,45.47673688,4,1
Q01_CLIP_0215_0PDW,Q01,"a safe, quiet place with lots of greenery where people can read outdoors",CLIP,215,234,VV_5Dx2sIuG5qX-s10s72A,D:\AAG\Milano_SVI\lang2img\0_Dataprocessing\views_4\VV_5Dx2sIuG5qX-s10s72A_180.jpg,VV_5Dx2sIuG5qX-s10s72A_180.jpg,0.21606445,street benches,180,9.191335872,45.46530721,4,1
Q01_CLIP_0052_RHOC,Q01,"a safe, quiet place with lots of greenery where people can read outdoors",CLIP,52,235,GH0wbzXrMHsEqrz-8LI4Zg,D:\AAG\Milano_SVI\lang2img\0_Dataprocessing\views_4\GH0wbzXrMHsEqrz-8LI4Zg_090.jpg,GH0wbzXrMHsEqrz-8LI4Zg_090.jpg,0.22485352,public seating on the sidewalk,90,9.200984353,45.47051064,4,1
Q01_CLIP_0210_XFQ8,Q01,"a safe, quiet place with lots of greenery where people can read outdoors",CLIP,210,236,cRPUn5tImrPFYqC10nn6qw,D:\AAG\Milano_SVI\lang2img\0_Dataprocessing\views_4\cRPUn5tImrPFYqC10nn6qw_090.jpg,cRPUn5tImrPFYqC10nn6qw_090.jpg,0.21618652,bench near the curb,90,9.126420802,45.51866992,4,1
Q01_CLIP_0136_38DA,Q01,"a safe, quiet place with lots of greenery where people can read outdoors",CLIP,136,237,clOXPKIlItkuc0ysljmYAQ,D:\AAG\Milano_SVI\lang2img\0_Dataprocessing\views_4\clOXPKIlItkuc0ysljmYAQ_270.jpg,clOXPKIlItkuc0ysljmYAQ_270.jpg,0.21923828,public bench,270,9.203417469,45.51187678,4,1
Q01_CLIP_0018_LJH7,Q01,"a safe, quiet place with lots of greenery where people can read outdoors",CLIP,18,238,JR0OsazBSI3nYCOTGxrLjA,D:\AAG\Milano_SVI\lang2img\0_Dataprocessing\views_4\JR0OsazBSI3nYCOTGxrLjA_090.jpg,JR0OsazBSI3nYCOTGxrLjA_090.jpg,0.23413086,benches,90,9.178027985,45.51864461,4,1
Q01_CLIP_0232_XLPU,Q01,"a safe, quiet place with lots of greenery where people can read outdoors",CLIP,232,239,bNny7gs2L41BW47uocWNug,D:\AAG\Milano_SVI\lang2img\0_Dataprocessing\views_4\bNny7gs2L41BW47uocWNug_090.jpg,bNny7gs2L41BW47uocWNug_090.jpg,0.21569824,benches along the street,90,9.2242077,45.4386638,4,1
Q01_CLIP_0202_RFTM,Q01,"a safe, quiet place with lots of greenery where people can read outdoors",CLIP,202,240,SmppA19vB3zWALMkzIy1ug,D:\AAG\Milano_SVI\lang2img\0_Dataprocessing\views_4\SmppA19vB3zWALMkzIy1ug_090.jpg,SmppA19vB3zWALMkzIy1ug_090.jpg,0.21643066,street furniture benches,90,9.178294012,45.51804432,4,1
Q01_CLIP_0149_H2M5,Q01,"a safe, quiet place with lots of greenery where people can read outdoors",CLIP,149,241,UzX2nSOeQeK-gNCd7QlCeQ,D:\AAG\Milano_SVI\lang2img\0_Dataprocessing\views_4\UzX2nSOeQeK-gNCd7QlCeQ_270.jpg,UzX2nSOeQeK-gNCd7QlCeQ_270.jpg,0.21838379,public bench,270,9.1906619,45.4670115,4,1
Q01_CLIP_0151_DZR1,Q01,"a safe, quiet place with lots of greenery where people can read outdoors",CLIP,151,242,-aufscEgGKl6W08RG-2X8w,D:\AAG\Milano_SVI\lang2img\0_Dataprocessing\views_4\-aufscEgGKl6W08RG-2X8w_090.jpg,-aufscEgGKl6W08RG-2X8w_090.jpg,0.21826172,bench near the curb,90,9.205212377,45.51466545,4,1
Q01_CLIP_0070_DTJV,Q01,"a safe, quiet place with lots of greenery where people can read outdoors",CLIP,70,243,7NOXJ6ZvlEaWv-f5OM-T7Q,D:\AAG\Milano_SVI\lang2img\0_Dataprocessing\views_4\7NOXJ6ZvlEaWv-f5OM-T7Q_270.jpg,7NOXJ6ZvlEaWv-f5OM-T7Q_270.jpg,0.22338867,street benches,270,9.2000595,45.4648334,4,1
Q01_CLIP_0060_6IVW,Q01,"a safe, quiet place with lots of greenery where people can read outdoors",CLIP,60,244,5q1_qHGiWP0glAki_2oTRA,D:\AAG\Milano_SVI\lang2img\0_Dataprocessing\views_4\5q1_qHGiWP0glAki_2oTRA_090.jpg,5q1_qHGiWP0glAki_2oTRA_090.jpg,0.22436523,public bench,90,9.1205082,45.4943506,4,1
Q01_CLIP_0079_ID25,Q01,"a safe, quiet place with lots of greenery where people can read outdoors",CLIP,79,245,HUUXmUbWDRw0J_pmLV7lBg,D:\AAG\Milano_SVI\lang2img\0_Dataprocessing\views_4\HUUXmUbWDRw0J_pmLV7lBg_090.jpg,HUUXmUbWDRw0J_pmLV7lBg_090.jpg,0.22290039,bench near the curb,90,9.2520305,45.4885341,4,1
Q01_CLIP_0055_UZFK,Q01,"a safe, quiet place with lots of greenery where people can read outdoors",CLIP,55,246,9Nm1AVGzXunh-l8msLPkqg,D:\AAG\Milano_SVI\lang2img\0_Dataprocessing\views_4\9Nm1AVGzXunh-l8msLPkqg_180.jpg,9Nm1AVGzXunh-l8msLPkqg_180.jpg,0.22460938,bench near the curb,180,9.195974,45.480349,4,1
Q01_CLIP_0131_9MX2,Q01,"a safe, quiet place with lots of greenery where people can read outdoors",CLIP,131,247,90L9lMBYvod2Jyy0JwajjQ,D:\AAG\Milano_SVI\lang2img\0_Dataprocessing\views_4\90L9lMBYvod2Jyy0JwajjQ_090.jpg,90L9lMBYvod2Jyy0JwajjQ_090.jpg,0.21960449,public bench,90,9.1707651,45.4594075,4,1
Q01_CLIP_0044_R23G,Q01,"a safe, quiet place with lots of greenery where people can read outdoors",CLIP,44,248,ayuSdPRUFdv9P0fpw0ZiiQ,D:\AAG\Milano_SVI\lang2img\0_Dataprocessing\views_4\ayuSdPRUFdv9P0fpw0ZiiQ_090.jpg,ayuSdPRUFdv9P0fpw0ZiiQ_090.jpg,0.22607422,bench near the curb,90,9.13288374,45.49404315,4,1
Q01_CLIP_0284_MA5U,Q01,"a safe, quiet place with lots of greenery where people can read outdoors",CLIP,284,249,KpuXfSxVk-ODbQhnwJ1zQA,D:\AAG\Milano_SVI\lang2img\0_Dataprocessing\views_4\KpuXfSxVk-ODbQhnwJ1zQA_270.jpg,KpuXfSxVk-ODbQhnwJ1zQA_270.jpg,0.21459961,benches on the sidewalk,270,9.181382058,45.4754071,4,1
Q01_CLIP_0273_NF7C,Q01,"a safe, quiet place with lots of greenery where people can read outdoors",CLIP,273,250,HoooEnRWtYrIfNO3plsZfQ,D:\AAG\Milano_SVI\lang2img\0_Dataprocessing\views_4\HoooEnRWtYrIfNO3plsZfQ_270.jpg,HoooEnRWtYrIfNO3plsZfQ_270.jpg,0.21484375,street benches,270,9.2001341,45.4658684,4,1
Q01_CLIP_0051_874F,Q01,"a safe, quiet place with lots of greenery where people can read outdoors",CLIP,51,251,ZyB3sV641eLfj0HtGjYy_Q,D:\AAG\Milano_SVI\lang2img\0_Dataprocessing\views_4\ZyB3sV641eLfj0HtGjYy_Q_090.jpg,ZyB3sV641eLfj0HtGjYy_Q_090.jpg,0.22485352,bench near the curb,90,9.211024633,45.52456184,4,1
Q01_CLIP_0047_OM5I,Q01,"a safe, quiet place with lots of greenery where people can read outdoors",CLIP,47,252,Nl1gma62829sdaw1TD82Kw,D:\AAG\Milano_SVI\lang2img\0_Dataprocessing\views_4\Nl1gma62829sdaw1TD82Kw_090.jpg,Nl1gma62829sdaw1TD82Kw_090.jpg,0.22521973,benches along the street,90,9.175164,45.5098923,4,1
Q01_CLIP_0179_7SRC,Q01,"a safe, quiet place with lots of greenery where people can read outdoors",CLIP,179,253,ILOfBxyvnQwNKRmF_Iz9hg,D:\AAG\Milano_SVI\lang2img\0_Dataprocessing\views_4\ILOfBxyvnQwNKRmF_Iz9hg_090.jpg,ILOfBxyvnQwNKRmF_Iz9hg_090.jpg,0.21691895,benches on the sidewalk,90,9.213127409,45.51885628,4,1
Q01_CLIP_0064_CQ99,Q01,"a safe, quiet place with lots of greenery where people can read outdoors",CLIP,64,254,g9v0gstpn0i6QpTtbS7jyg,D:\AAG\Milano_SVI\lang2img\0_Dataprocessing\views_4\g9v0gstpn0i6QpTtbS7jyg_270.jpg,g9v0gstpn0i6QpTtbS7jyg_270.jpg,0.22399902,benches on the sidewalk,270,9.159474058,45.48772914,4,1
Q01_CLIP_0256_HH5L,Q01,"a safe, quiet place with lots of greenery where people can read outdoors",CLIP,256,255,C9lzsuAVl_SmUG6Bv3hgBw,D:\AAG\Milano_SVI\lang2img\0_Dataprocessing\views_4\C9lzsuAVl_SmUG6Bv3hgBw_270.jpg,C9lzsuAVl_SmUG6Bv3hgBw_270.jpg,0.21533203,bench near the curb,270,9.154470848,45.45184781,4,1
Q01_CLIP_0024_2PCN,Q01,"a safe, quiet place with lots of greenery where people can read outdoors",CLIP,24,256,49FBWxgTXO7XOvIBUrRJjA,D:\AAG\Milano_SVI\lang2img\0_Dataprocessing\views_4\49FBWxgTXO7XOvIBUrRJjA_090.jpg,49FBWxgTXO7XOvIBUrRJjA_090.jpg,0.23242188,bench near the curb,90,9.210807803,45.52453095,4,1
Q01_CLIP_0003_PBHS,Q01,"a safe, quiet place with lots of greenery where people can read outdoors",CLIP,3,257,jrce2IWihlk-T4v73xSvGQ,D:\AAG\Milano_SVI\lang2img\0_Dataprocessing\views_4\jrce2IWihlk-T4v73xSvGQ_270.jpg,jrce2IWihlk-T4v73xSvGQ_270.jpg,0.24511719,public bench,270,9.1267941,45.4749219,4,1
Q01_CLIP_0037_PHT0,Q01,"a safe, quiet place with lots of greenery where people can read outdoors",CLIP,37,258,EpcQkZy2WNGXJCsqUuvpMA,D:\AAG\Milano_SVI\lang2img\0_Dataprocessing\views_4\EpcQkZy2WNGXJCsqUuvpMA_090.jpg,EpcQkZy2WNGXJCsqUuvpMA_090.jpg,0.22717285,bench near the curb,90,9.229284,45.459755,4,1
Q01_CLIP_0176_X63C,Q01,"a safe, quiet place with lots of greenery where people can read outdoors",CLIP,176,259,mW2RT0taMBAJVWru-G-tsA,D:\AAG\Milano_SVI\lang2img\0_Dataprocessing\views_4\mW2RT0taMBAJVWru-G-tsA_090.jpg,mW2RT0taMBAJVWru-G-tsA_090.jpg,0.21716309,bench near the curb,90,9.114962962,45.51548187,4,1
Q01_CLIP_0169_9KWV,Q01,"a safe, quiet place with lots of greenery where people can read outdoors",CLIP,169,260,_nrceSws8ZERyFR_ZfU45g,D:\AAG\Milano_SVI\lang2img\0_Dataprocessing\views_4\_nrceSws8ZERyFR_ZfU45g_090.jpg,_nrceSws8ZERyFR_ZfU45g_090.jpg,0.21740723,bench near the curb,90,9.189236535,45.43697738,4,1
Q01_CLIP_0194_FTTD,Q01,"a safe, quiet place with lots of greenery where people can read outdoors",CLIP,194,261,P89cxBFUh-kNRYy1O_oSRQ,D:\AAG\Milano_SVI\lang2img\0_Dataprocessing\views_4\P89cxBFUh-kNRYy1O_oSRQ_090.jpg,P89cxBFUh-kNRYy1O_oSRQ_090.jpg,0.2166748,a bench,90,9.139369797,45.48601282,4,1
Q01_CLIP_0154_URTP,Q01,"a safe, quiet place with lots of greenery where people can read outdoors",CLIP,154,262,It8ZwslkDe5KUVqZh-oDcg,D:\AAG\Milano_SVI\lang2img\0_Dataprocessing\views_4\It8ZwslkDe5KUVqZh-oDcg_090.jpg,It8ZwslkDe5KUVqZh-oDcg_090.jpg,0.21813965,bench near the curb,90,9.258155376,45.43491151,4,1
Q01_CLIP_0279_XID4,Q01,"a safe, quiet place with lots of greenery where people can read outdoors",CLIP,279,263,PWN9OwvGvBgEWSUEkXg8Tg,D:\AAG\Milano_SVI\lang2img\0_Dataprocessing\views_4\PWN9OwvGvBgEWSUEkXg8Tg_270.jpg,PWN9OwvGvBgEWSUEkXg8Tg_270.jpg,0.21472168,benches on the sidewalk,270,9.201891369,45.4892111,4,1
Q01_CLIP_0178_KEYZ,Q01,"a safe, quiet place with lots of greenery where people can read outdoors",CLIP,178,264,ZQKl5HdLU9rAS33NfXiWig,D:\AAG\Milano_SVI\lang2img\0_Dataprocessing\views_4\ZQKl5HdLU9rAS33NfXiWig_270.jpg,ZQKl5HdLU9rAS33NfXiWig_270.jpg,0.21704102,benches along the street,270,9.1638454,45.4610599,4,1
Q01_CLIP_0090_8JDP,Q01,"a safe, quiet place with lots of greenery where people can read outdoors",CLIP,90,265,g1weioRWFAdbpwIReaOlKg,D:\AAG\Milano_SVI\lang2img\0_Dataprocessing\views_4\g1weioRWFAdbpwIReaOlKg_270.jpg,g1weioRWFAdbpwIReaOlKg_270.jpg,0.22241211,benches on the sidewalk,270,9.2397521,45.4371478,4,1
Q01_CLIP_0257_F6A4,Q01,"a safe, quiet place with lots of greenery where people can read outdoors",CLIP,257,266,ws99Imhfh69o8KqHefLYlQ,D:\AAG\Milano_SVI\lang2img\0_Dataprocessing\views_4\ws99Imhfh69o8KqHefLYlQ_270.jpg,ws99Imhfh69o8KqHefLYlQ_270.jpg,0.21520996,bench near the curb,270,9.172233895,45.5316305,4,1
Q01_CLIP_0035_C11E,Q01,"a safe, quiet place with lots of greenery where people can read outdoors",CLIP,35,267,d6BaQkKHIR0MiwQdSKasEg,D:\AAG\Milano_SVI\lang2img\0_Dataprocessing\views_4\d6BaQkKHIR0MiwQdSKasEg_090.jpg,d6BaQkKHIR0MiwQdSKasEg_090.jpg,0.22802734,public bench,90,9.260219422,45.50865141,4,1
Q01_CLIP_0109_G8SB,Q01,"a safe, quiet place with lots of greenery where people can read outdoors",CLIP,109,268,ZJKamie4JzuwdcuDzqyvCw,D:\AAG\Milano_SVI\lang2img\0_Dataprocessing\views_4\ZJKamie4JzuwdcuDzqyvCw_090.jpg,ZJKamie4JzuwdcuDzqyvCw_090.jpg,0.22131348,street furniture benches,90,9.2147903,45.4815417,4,1
Q01_CLIP_0159_KDGI,Q01,"a safe, quiet place with lots of greenery where people can read outdoors",CLIP,159,269,o_quvbyX_gQ_QCF8jEibwQ,D:\AAG\Milano_SVI\lang2img\0_Dataprocessing\views_4\o_quvbyX_gQ_QCF8jEibwQ_270.jpg,o_quvbyX_gQ_QCF8jEibwQ_270.jpg,0.21789551,bench near the curb,270,9.206433286,45.51683637,4,2
Q01_CLIP_0272_ODPX,Q01,"a safe, quiet place with lots of greenery where people can read outdoors",CLIP,272,270,OrEtF7HaNMiu2FGeEeaCxA,D:\AAG\Milano_SVI\lang2img\0_Dataprocessing\views_4\OrEtF7HaNMiu2FGeEeaCxA_270.jpg,OrEtF7HaNMiu2FGeEeaCxA_270.jpg,0.21484375,bench near the curb,270,9.091793869,45.45566186,4,1
Q01_CLIP_0021_UJV6,Q01,"a safe, quiet place with lots of greenery where people can read outdoors",CLIP,21,271,y-nyd-0_0QGfSPtW_DyYAg,D:\AAG\Milano_SVI\lang2img\0_Dataprocessing\views_4\y-nyd-0_0QGfSPtW_DyYAg_090.jpg,y-nyd-0_0QGfSPtW_DyYAg_090.jpg,0.23278809,bench near the curb,90,9.1027947,45.500564,4,1
Q01_CLIP_0140_E92M,Q01,"a safe, quiet place with lots of greenery where people can read outdoors",CLIP,140,272,xhdo02lZf08poh4ta1LDkQ,D:\AAG\Milano_SVI\lang2img\0_Dataprocessing\views_4\xhdo02lZf08poh4ta1LDkQ_090.jpg,xhdo02lZf08poh4ta1LDkQ_090.jpg,0.21887207,a bench,90,9.1417648,45.4431161,4,1
Q01_CLIP_0097_OKEP,Q01,"a safe, quiet place with lots of greenery where people can read outdoors",CLIP,97,273,junrLdSpLzz3Rf8ysiIwsA,D:\AAG\Milano_SVI\lang2img\0_Dataprocessing\views_4\junrLdSpLzz3Rf8ysiIwsA_000.jpg,junrLdSpLzz3Rf8ysiIwsA_000.jpg,0.22180176,street benches,0,9.191756,45.4586137,4,1
Q01_CLIP_0135_GV0E,Q01,"a safe, quiet place with lots of greenery where people can read outdoors",CLIP,135,274,dF9kXDy3SqsVFRKQ9viyGQ,D:\AAG\Milano_SVI\lang2img\0_Dataprocessing\views_4\dF9kXDy3SqsVFRKQ9viyGQ_090.jpg,dF9kXDy3SqsVFRKQ9viyGQ_090.jpg,0.21936035,bench near the curb,90,9.132946037,45.49410995,4,1
Q01_CLIP_0198_TN7S,Q01,"a safe, quiet place with lots of greenery where people can read outdoors",CLIP,198,275,O4_us9ZiEUqQH1MqpOmsew,D:\AAG\Milano_SVI\lang2img\0_Dataprocessing\views_4\O4_us9ZiEUqQH1MqpOmsew_090.jpg,O4_us9ZiEUqQH1MqpOmsew_090.jpg,0.21655273,street benches,90,9.1842423,45.4658497,4,1
Q01_CLIP_0239_82N2,Q01,"a safe, quiet place with lots of greenery where people can read outdoors",CLIP,239,276,a0Cr-2MbZ3bC9ZKNE0u1qA,D:\AAG\Milano_SVI\lang2img\0_Dataprocessing\views_4\a0Cr-2MbZ3bC9ZKNE0u1qA_090.jpg,a0Cr-2MbZ3bC9ZKNE0u1qA_090.jpg,0.21557617,bench near the curb,90,9.183964,45.5136672,4,1
Q01_CLIP_0213_Z15B,Q01,"a safe, quiet place with lots of greenery where people can read outdoors",CLIP,213,277,enmLsKdevmKp0o0DpFE-AA,D:\AAG\Milano_SVI\lang2img\0_Dataprocessing\views_4\enmLsKdevmKp0o0DpFE-AA_090.jpg,enmLsKdevmKp0o0DpFE-AA_090.jpg,0.21606445,bench near the curb,90,9.204738256,45.50377836,4,1
Q01_CLIP_0248_0FOD,Q01,"a safe, quiet place with lots of greenery where people can read outdoors",CLIP,248,278,Ai4Z3pXk1Li7Fhr5huYoUA,D:\AAG\Milano_SVI\lang2img\0_Dataprocessing\views_4\Ai4Z3pXk1Li7Fhr5huYoUA_090.jpg,Ai4Z3pXk1Li7Fhr5huYoUA_090.jpg,0.2154541,bench near the curb,90,9.21092721,45.42506204,4,1
Q01_CLIP_0006_3ZMF,Q01,"a safe, quiet place with lots of greenery where people can read outdoors",CLIP,6,279,6jMgDoUo0OX-_1WJ0481hw,D:\AAG\Milano_SVI\lang2img\0_Dataprocessing\views_4\6jMgDoUo0OX-_1WJ0481hw_090.jpg,6jMgDoUo0OX-_1WJ0481hw_090.jpg,0.24230957,bench near the curb,90,9.1758567,45.5206498,4,1
Q01_CLIP_0254_VA2I,Q01,"a safe, quiet place with lots of greenery where people can read outdoors",CLIP,254,280,NxvSq6xNbvJkIdLkMDFkJw,D:\AAG\Milano_SVI\lang2img\0_Dataprocessing\views_4\NxvSq6xNbvJkIdLkMDFkJw_090.jpg,NxvSq6xNbvJkIdLkMDFkJw_090.jpg,0.21533203,bench near the curb,90,9.066118798,45.45708252,4,1
Q01_CLIP_0032_ALA7,Q01,"a safe, quiet place with lots of greenery where people can read outdoors",CLIP,32,281,a3kY7BS7cIdCIY2thSvc9w,D:\AAG\Milano_SVI\lang2img\0_Dataprocessing\views_4\a3kY7BS7cIdCIY2thSvc9w_270.jpg,a3kY7BS7cIdCIY2thSvc9w_270.jpg,0.22851562,public bench,270,9.180090241,45.4686047,4,2
Q01_CLIP_0214_CW79,Q01,"a safe, quiet place with lots of greenery where people can read outdoors",CLIP,214,282,NIeDQY2g9sTO3gukrwpuRw,D:\AAG\Milano_SVI\lang2img\0_Dataprocessing\views_4\NIeDQY2g9sTO3gukrwpuRw_270.jpg,NIeDQY2g9sTO3gukrwpuRw_270.jpg,0.21606445,benches along the street,270,9.2213649,45.4619969,4,1
Q01_CLIP_0221_JJA2,Q01,"a safe, quiet place with lots of greenery where people can read outdoors",CLIP,221,283,X5VS-vPBfxDSYeAH-Htxnw,D:\AAG\Milano_SVI\lang2img\0_Dataprocessing\views_4\X5VS-vPBfxDSYeAH-Htxnw_090.jpg,X5VS-vPBfxDSYeAH-Htxnw_090.jpg,0.21606445,bench near the curb,90,9.0880268,45.4574471,4,1
Q01_CLIP_0067_4ZW9,Q01,"a safe, quiet place with lots of greenery where people can read outdoors",CLIP,67,284,8HB7cpW8qt_6kvvD9b2D2g,D:\AAG\Milano_SVI\lang2img\0_Dataprocessing\views_4\8HB7cpW8qt_6kvvD9b2D2g_090.jpg,8HB7cpW8qt_6kvvD9b2D2g_090.jpg,0.22399902,bench near the curb,90,9.120880057,45.47024727,4,1
Q01_CLIP_0196_3RZS,Q01,"a safe, quiet place with lots of greenery where people can read outdoors",CLIP,196,285,DuIgHfa9eJgqKo1adRA9PQ,D:\AAG\Milano_SVI\lang2img\0_Dataprocessing\views_4\DuIgHfa9eJgqKo1adRA9PQ_270.jpg,DuIgHfa9eJgqKo1adRA9PQ_270.jpg,0.21655273,street furniture benches,270,9.2036638,45.4623474,4,1
Q01_CLIP_0283_JGZL,Q01,"a safe, quiet place with lots of greenery where people can read outdoors",CLIP,283,286,fRn12FxkDkVniZmjgC82Qw,D:\AAG\Milano_SVI\lang2img\0_Dataprocessing\views_4\fRn12FxkDkVniZmjgC82Qw_270.jpg,fRn12FxkDkVniZmjgC82Qw_270.jpg,0.21459961,benches on the sidewalk,270,9.2351389,45.50127601,4,1
Q01_CLIP_0281_493W,Q01,"a safe, quiet place with lots of greenery where people can read outdoors",CLIP,281,287,zKC3u_9M70BwdqaCcm88rQ,D:\AAG\Milano_SVI\lang2img\0_Dataprocessing\views_4\zKC3u_9M70BwdqaCcm88rQ_180.jpg,zKC3u_9M70BwdqaCcm88rQ_180.jpg,0.21459961,street benches,180,9.1728286,45.4760541,4,1
Q01_CLIP_0009_T9NT,Q01,"a safe, quiet place with lots of greenery where people can read outdoors",CLIP,9,288,Lr4NMNZ0MQaoP1Yzx4D3Tg,D:\AAG\Milano_SVI\lang2img\0_Dataprocessing\views_4\Lr4NMNZ0MQaoP1Yzx4D3Tg_090.jpg,Lr4NMNZ0MQaoP1Yzx4D3Tg_090.jpg,0.24047852,benches,90,9.180032792,45.51218728,4,1
